{"edges":[{"label":"ARRAS","source":"34549","target":"34510","id":"166","attributes":{"depart_lat":"46.98332977","datesource":"1334-09-12","id_personn":"613","Weight":"2.0","nomvedette":"Joannes de Mandevillain","souverain":"Bourgogne","depart_lon":"3.16667008"},"color":"rgb(153,153,153)","size":2.0},{"label":"BARCELONA","source":"34498","target":"34434","id":"235","attributes":{"depart_lat":"41.93999863","datesource":"1346-07-24","id_personn":"783","Weight":"1.0","nomvedette":"Michael Ricomanni de Ricoma","souverain":"Couronne d\u0027Aragon","depart_lon":"2.24000001"},"color":"rgb(153,153,153)","size":1.0},{"label":"MIREPOIX","source":"34574","target":"34674","id":"751","attributes":{"depart_lat":"43.59999847","datesource":"1318-02-17","id_personn":"3341","Weight":"1.0","nomvedette":"Raimundus d\u0027Atho","souverain":"Royaume de France","depart_lon":"1.43333006"},"color":"rgb(153,153,153)","size":1.0},{"label":"STRASBOURG","source":"34399","target":"34570","id":"137","attributes":{"depart_lat":"48.88999939","datesource":"1306-02-18","id_personn":"467","Weight":"1.0","nomvedette":"Joannes de Dirpheim","souverain":"Saint Empire Romain Germanique","depart_lon":"11.19999981"},"color":"rgb(153,153,153)","size":1.0},{"label":"NOYON","source":"34557","target":"34552","id":"225","attributes":{"depart_lat":"48.8666687","datesource":"1331-03-01","id_personn":"733","Weight":"4.0","nomvedette":"Guilelmus Bertrand","souverain":"Royaume de France","depart_lon":"2.33332992"},"color":"rgb(153,153,153)","size":4.0},{"label":"TULLE","source":"29712","target":"29713","id":"955","attributes":{"depart_lat":"44.24251175","datesource":"1361-10-25","id_personn":"5220","Weight":"1.0","nomvedette":"Laurentius d Albiars","souverain":"Royaume de France","depart_lon":"5.0707202"},"color":"rgb(153,153,153)","size":1.0},{"label":"FAMAGUSTA","source":"34466","target":"34315","id":"557","attributes":{"depart_lat":"35.16667175","datesource":"1348-08-14","id_personn":"2247","Weight":"1.0","nomvedette":"Leodegarius","souverain":"Royaume de Chypre","depart_lon":"33.3666687"},"color":"rgb(153,153,153)","size":1.0},{"label":"OVIEDO","source":"34443","target":"34450","id":"471","attributes":{"depart_lat":"40.08000183","datesource":"1328-05-07","id_personn":"1724","Weight":"1.0","nomvedette":"Joannes de Campo","souverain":"Castille","depart_lon":"-2.1400001"},"color":"rgb(153,153,153)","size":1.0},{"label":"TRIVENTO","source":"34648","target":"34913","id":"212","attributes":{"depart_lat":"40.91999817","datesource":"1334-06-17","id_personn":"697","Weight":"1.0","nomvedette":"Natimbene","souverain":"Royaume de Naples","depart_lon":"14.78999996"},"color":"rgb(153,153,153)","size":1.0},{"label":"LE PUY","source":"34503","target":"34186","id":"63","attributes":{"depart_lat":"43.93333054","datesource":"1308-07-30","id_personn":"193","Weight":"1.0","nomvedette":"Bernardus de Castanet","souverain":"Royaume de France","depart_lon":"2.1500001"},"color":"rgb(153,153,153)","size":1.0},{"label":"DOGLIA [ALGHERO]","source":"34664","target":"34290","id":"518","attributes":{"depart_lat":"39.22000122","datesource":"1362-04-04","id_personn":"2024","Weight":"1.0","nomvedette":"Nicolaus Alerii","souverain":"Couronne d\u0027Aragon","depart_lon":"9.10000038"},"color":"rgb(153,153,153)","size":1.0},{"label":"AVERSA","source":"34733","target":"34649","id":"213","attributes":{"depart_lat":"40.83000183","datesource":"1324-06-01","id_personn":"709","Weight":"1.0","nomvedette":"Guilelmus de Sallone","souverain":"Royaume de Naples","depart_lon":"14.11999989"},"color":"rgb(153,153,153)","size":1.0},{"label":"CHALON SUR SAONE","source":"34386","target":"34529","id":"323","attributes":{"depart_lat":"50.59999847","datesource":"1351-01-03","id_personn":"1094","Weight":"1.0","nomvedette":"Reginaldus Chauveau","souverain":"Bourgogne","depart_lon":"3.38000011"},"color":"rgb(153,153,153)","size":1.0},{"label":"NEVERS","source":"34519","target":"34549","id":"781","attributes":{"depart_lat":"47.25","datesource":"1371-02-10","id_personn":"3604","Weight":"2.0","nomvedette":"Joannes de Novocastro","souverain":"Bourgogne","depart_lon":"6.03332996"},"color":"rgb(153,153,153)","size":2.0},{"label":"DAKOVO","source":"34616","target":"34212","id":"282","attributes":{"depart_lat":"44.11972046","datesource":"1376-01-23","id_personn":"963","Weight":"1.0","nomvedette":"Dominicus","souverain":"Seigneurerie de Garay","depart_lon":"15.24221992"},"color":"rgb(153,153,153)","size":1.0},{"label":"CARCASSONNE","source":"34520","target":"34525","id":"267","attributes":{"depart_lat":"43.34999847","datesource":"1371-06-27","id_personn":"895","Weight":"1.0","nomvedette":"Hugo de la Jugie","souverain":"Royaume de France","depart_lon":"3.25"},"color":"rgb(153,153,153)","size":1.0},{"label":"OSOR","source":"34192","target":"34156","id":"6","attributes":{"depart_lat":"44.75318909","datesource":"1347-10-29","id_personn":"32","Weight":"1.0","nomvedette":"Matthaeus Cernota","souverain":"Seigneurerie de Garay","depart_lon":"14.77313042"},"color":"rgb(153,153,153)","size":1.0},{"label":"AUXERRE","source":"34567","target":"34513","id":"188","attributes":{"depart_lat":"49.20000076","datesource":"1332-01-24","id_personn":"671","Weight":"2.0","nomvedette":"Aimericus Guenaud","souverain":"Royaume de France","depart_lon":"2.58332992"},"color":"rgb(153,153,153)","size":2.0},{"label":"VITERBO","source":"34774","target":"34837","id":"1009","attributes":{"depart_lat":"44.22000122","datesource":"1348-07-15","id_personn":"5556","Weight":"1.0","nomvedette":"Joannes","souverain":"Etats Pontificaux","depart_lon":"12.02999973"},"color":"rgb(153,153,153)","size":1.0},{"label":"VALLETTA [MALTA]","source":"34721","target":"34679","id":"741","attributes":{"depart_lat":"38.11999893","datesource":"1343-10-27","id_personn":"3293","Weight":"1.0","nomvedette":"Ogerius","souverain":"Royaume de Sicile","depart_lon":"13.35999966"},"color":"rgb(153,153,153)","size":1.0},{"label":"LUCERA","source":"34812","target":"34795","id":"689","attributes":{"depart_lat":"40.84999847","datesource":"1373-10-17","id_personn":"3026","Weight":"1.0","nomvedette":"Bartholomaeus de Aprano","souverain":"Royaume de Naples","depart_lon":"14.27000046"},"color":"rgb(153,153,153)","size":1.0},{"label":"LAMEGO","source":"34136","target":"34137","id":"626","attributes":{"depart_lat":"38.56999969","datesource":"1311-05-10","id_personn":"2760","Weight":"1.0","nomvedette":"Rodericus de Oliveyra","souverain":"Royaume du Portugal","depart_lon":"-7.90999985"},"color":"rgb(153,153,153)","size":1.0},{"label":"DAKOVO","source":"34920","target":"34212","id":"281","attributes":{"depart_lat":"45.02582932","datesource":"1348-00-00","id_personn":"960","Weight":"1.0","nomvedette":"Bonjoannes","souverain":"Seigneurerie de Garay","depart_lon":"14.57555962"},"color":"rgb(153,153,153)","size":1.0},{"label":"LEON","source":"34488","target":"34447","id":"646","attributes":{"depart_lat":"40.97000122","datesource":"1375-03-05","id_personn":"2865","Weight":"1.0","nomvedette":"Alfonsus","souverain":"Castille","depart_lon":"-5.67000008"},"color":"rgb(153,153,153)","size":1.0},{"label":"SION","source":"34391","target":"34392","id":"893","attributes":{"depart_lat":"46.20000076","datesource":"1342-09-25","id_personn":"4469","Weight":"1.0","nomvedette":"Guichardus Tavelli","souverain":"Saint Empire Romain Germanique","depart_lon":"6.16666985"},"color":"rgb(153,153,153)","size":1.0},{"label":"BURGOS","source":"34437","target":"34435","id":"312","attributes":{"depart_lat":"42.34000015","datesource":"1348-09-17","id_personn":"1074","Weight":"3.0","nomvedette":"Petrus","souverain":"Castille","depart_lon":"-2.79999995"},"color":"rgb(153,153,153)","size":3.0},{"label":"LEON","source":"34442","target":"34447","id":"408","attributes":{"depart_lat":"39.99000168","datesource":"1354-01-15","id_personn":"1447","Weight":"1.0","nomvedette":"Petrus Raimundi","souverain":"Castille","depart_lon":"-6.53999996"},"color":"rgb(153,153,153)","size":1.0},{"label":"LANGRES","source":"34557","target":"34535","id":"663","attributes":{"depart_lat":"48.8666687","datesource":"1344-08-31","id_personn":"2945","Weight":"1.0","nomvedette":"Hugo de Pomarco","souverain":"Royaume de France","depart_lon":"2.33332992"},"color":"rgb(153,153,153)","size":1.0},{"label":"TERMOLI","source":"34659","target":"34761","id":"931","attributes":{"depart_lat":"41.48332977","datesource":"1364-11-27","id_personn":"4967","Weight":"1.0","nomvedette":"Franciscus de Stella","souverain":"Royaume de Naples","depart_lon":"14.48332977"},"color":"rgb(153,153,153)","size":1.0},{"label":"SAINT-PAPOUL","source":"34374","target":"31980","id":"835","attributes":{"depart_lat":"43.51197052","datesource":"1370-06-08","id_personn":"3855","Weight":"1.0","nomvedette":"Bernardus de Castelnau","souverain":"Royaume de France","depart_lon":"3.88725996"},"color":"rgb(153,153,153)","size":1.0},{"label":"BOVINO","source":"34777","target":"34209","id":"278","attributes":{"depart_lat":"41.22000122","datesource":"1349-06-19","id_personn":"919","Weight":"1.0","nomvedette":"Nicolaus","souverain":"Royaume de Naples","depart_lon":"13.56000042"},"color":"rgb(153,153,153)","size":1.0},{"label":"COMO","source":"34661","target":"34701","id":"153","attributes":{"depart_lat":"45.54999924","datesource":"1369-10-22","id_personn":"549","Weight":"1.0","nomvedette":"Henricus de Sessa","souverain":"Duché de Milan","depart_lon":"10.22000027"},"color":"rgb(153,153,153)","size":1.0},{"label":"VENOSA","source":"34158","target":"34830","id":"982","attributes":{"depart_lat":"40.76539993","datesource":"1363-06-14","id_personn":"5410","Weight":"1.0","nomvedette":"Thomasius","souverain":"Royaume de Naples","depart_lon":"15.05706978"},"color":"rgb(153,153,153)","size":1.0},{"label":"POITIERS","source":"34272","target":"34559","id":"842","attributes":{"depart_lat":"43.02807999","datesource":"1306-11-04","id_personn":"3956","Weight":"1.0","nomvedette":"Arnaldus d\u0027Auch","souverain":"Royaume de France","depart_lon":"0.57388002"},"color":"rgb(153,153,153)","size":1.0},{"label":"MAGUELONE","source":"34306","target":"34374","id":"702","attributes":{"depart_lat":"42.99673843","datesource":"1339-03-15","id_personn":"3082","Weight":"1.0","nomvedette":"Arnaldus de Verdale","souverain":"Royaume de France","depart_lon":"2.25523996"},"color":"rgb(153,153,153)","size":1.0},{"label":"CUENCA","source":"34451","target":"34443","id":"475","attributes":{"depart_lat":"42.02999878","datesource":"1342-07-18","id_personn":"1726","Weight":"1.0","nomvedette":"Garsias","souverain":"Castille","depart_lon":"-4.53999996"},"color":"rgb(153,153,153)","size":1.0},{"label":"MARIANA","source":"34472","target":"34377","id":"713","attributes":{"depart_lat":"42.68304062","datesource":"1364-04-10","id_personn":"3139","Weight":"1.0","nomvedette":"Petrus Raimundi","souverain":"République de Gênes","depart_lon":"9.30333996"},"color":"rgb(153,153,153)","size":1.0},{"label":"COSENZA","source":"34801","target":"34705","id":"510","attributes":{"depart_lat":"41.00999832","datesource":"1362-12-14","id_personn":"1964","Weight":"1.0","nomvedette":"Nicolaus Caracciolo","souverain":"Royaume de Naples","depart_lon":"15.65999985"},"color":"rgb(153,153,153)","size":1.0},{"label":"KALOCSA","source":"34464","target":"34622","id":"456","attributes":{"depart_lat":"48.31000137","datesource":"1367-02-10","id_personn":"1686","Weight":"1.0","nomvedette":"Stephanus de Insula","souverain":"Royaume de Hongrie","depart_lon":"18.07999992"},"color":"rgb(153,153,153)","size":1.0},{"label":"CASERTA","source":"34742","target":"34670","id":"382","attributes":{"depart_lat":"40.68000031","datesource":"1374-06-16","id_personn":"1322","Weight":"1.0","nomvedette":"Nicolaus Sullimene","souverain":"Royaume de Naples","depart_lon":"14.77000046"},"color":"rgb(153,153,153)","size":1.0},{"label":"LAVAUR","source":"34557","target":"28930","id":"401","attributes":{"depart_lat":"48.8666687","datesource":"1348-11-14","id_personn":"1411","Weight":"1.0","nomvedette":"Arcambaldus de Lautrico","souverain":"Royaume de France","depart_lon":"2.33332992"},"color":"rgb(153,153,153)","size":1.0},{"label":"ROUEN","source":"34557","target":"34563","id":"837","attributes":{"depart_lat":"48.8666687","datesource":"1352-02-08","id_personn":"3870","Weight":"1.0","nomvedette":"Petrus de Foresta","souverain":"Royaume de France","depart_lon":"2.33332992"},"color":"rgb(153,153,153)","size":1.0},{"label":"RIMINI","source":"34727","target":"34740","id":"150","attributes":{"depart_lat":"43.91999817","datesource":"1374-01-10","id_personn":"508","Weight":"1.0","nomvedette":"Lealis de Malatestis","souverain":"Etats Pontificaux","depart_lon":"12.90999985"},"color":"rgb(153,153,153)","size":1.0},{"label":"SAINT-PAPOUL","source":"34320","target":"31980","id":"563","attributes":{"depart_lat":"45.03406906","datesource":"1319-04-16","id_personn":"2321","Weight":"1.0","nomvedette":"Raimundus de Mostuejols","souverain":"Royaume de France","depart_lon":"3.09455991"},"color":"rgb(153,153,153)","size":1.0},{"label":"EGER","source":"34620","target":"34619","id":"54","attributes":{"depart_lat":"47.79999924","datesource":"1330-09-17","id_personn":"170","Weight":"1.0","nomvedette":"Nicolaus","souverain":"Royaume de Hongrie","depart_lon":"18.75"},"color":"rgb(153,153,153)","size":1.0},{"label":"AGEN","source":"34303","target":"34501","id":"50","attributes":{"depart_lat":"44.56317902","datesource":"1364-01-10","id_personn":"156","Weight":"1.0","nomvedette":"Raimundus de Salg","souverain":"Royaume de France","depart_lon":"6.49529982"},"color":"rgb(153,153,153)","size":1.0},{"label":"MAGUELONE","source":"34164","target":"34374","id":"71","attributes":{"depart_lat":"44.43395996","datesource":"1334-09-12","id_personn":"200","Weight":"1.0","nomvedette":"Pictavinus de Montesquiou","souverain":"Royaume de France","depart_lon":"-0.20321999"},"color":"rgb(153,153,153)","size":1.0},{"label":"ANCONA","source":"34929","target":"34640","id":"92","attributes":{"depart_lat":"41.88590622","datesource":"1342-07-18","id_personn":"279","Weight":"1.0","nomvedette":"Nicolaus Rainonis","souverain":"Etats Pontificaux","depart_lon":"12.50615597"},"color":"rgb(153,153,153)","size":1.0},{"label":"CONZA","source":"34184","target":"34268","id":"95","attributes":{"depart_lat":"40.90956116","datesource":"1346-12-11","id_personn":"303","Weight":"1.0","nomvedette":"Laurentius","souverain":"Royaume de Naples","depart_lon":"15.20656013"},"color":"rgb(153,153,153)","size":1.0},{"label":"TEANO","source":"34786","target":"34758","id":"924","attributes":{"depart_lat":"41.59000015","datesource":"1372-01-19","id_personn":"4930","Weight":"1.0","nomvedette":"Alexander","souverain":"Royaume de Naples","depart_lon":"14.31000042"},"color":"rgb(153,153,153)","size":1.0},{"label":"VESZPREM","source":"34621","target":"34624","id":"614","attributes":{"depart_lat":"47.68333054","datesource":"1377-10-01","id_personn":"2670","Weight":"1.0","nomvedette":"Petrus","souverain":"Royaume de Hongrie","depart_lon":"17.63332939"},"color":"rgb(153,153,153)","size":1.0},{"label":"GAETA","source":"34854","target":"34777","id":"571","attributes":{"depart_lat":"40.64908981","datesource":"1348-11-10","id_personn":"2407","Weight":"1.0","nomvedette":"Rogerius Fricziae","souverain":"Royaume de Naples","depart_lon":"14.61124039"},"color":"rgb(153,153,153)","size":1.0},{"label":"PORTO","source":"34140","target":"34139","id":"858","attributes":{"depart_lat":"37.18000031","datesource":"1373-02-09","id_personn":"4061","Weight":"1.0","nomvedette":"Joannes","souverain":"Royaume du Portugal","depart_lon":"-8.42000008"},"color":"rgb(153,153,153)","size":1.0},{"label":"PARIS","source":"34518","target":"34557","id":"836","attributes":{"depart_lat":"49.43333054","datesource":"1342-11-28","id_personn":"3868","Weight":"1.0","nomvedette":"Fulco de Chanac","souverain":"Royaume de France","depart_lon":"2.08332992"},"color":"rgb(153,153,153)","size":1.0},{"label":"SAINT-LIZIER","source":"34272","target":"34269","id":"484","attributes":{"depart_lat":"43.02807999","datesource":"1348-09-17","id_personn":"1765","Weight":"1.0","nomvedette":"Chanhardus","souverain":"Royaume de France","depart_lon":"0.57388002"},"color":"rgb(153,153,153)","size":1.0},{"label":"BURGOS","source":"31971","target":"34435","id":"316","attributes":{"depart_lat":"40.99419022","datesource":"1361-06-18","id_personn":"1077","Weight":"1.0","nomvedette":"Joannes","souverain":"Castille","depart_lon":"-2.88579988"},"color":"rgb(153,153,153)","size":1.0},{"label":"VESZPREM","source":"34464","target":"34624","id":"773","attributes":{"depart_lat":"48.31000137","datesource":"1334-04-26","id_personn":"3590","Weight":"2.0","nomvedette":"Mescho","souverain":"Royaume de Hongrie","depart_lon":"18.07999992"},"color":"rgb(153,153,153)","size":2.0},{"label":"AMIENS","source":"34520","target":"34505","id":"87","attributes":{"depart_lat":"43.34999847","datesource":"1376-01-03","id_personn":"253","Weight":"1.0","nomvedette":"Joannes Roland","souverain":"Royaume de France","depart_lon":"3.25"},"color":"rgb(153,153,153)","size":1.0},{"label":"TERNI","source":"34755","target":"34762","id":"621","attributes":{"depart_lat":"42.74000168","datesource":"1359-07-12","id_personn":"2701","Weight":"1.0","nomvedette":"Matthaeus","souverain":"Etats Pontificaux","depart_lon":"12.75"},"color":"rgb(153,153,153)","size":1.0},{"label":"CALAHORRA","source":"34495","target":"34437","id":"329","attributes":{"depart_lat":"39.86000061","datesource":"1351-06-08","id_personn":"1141","Weight":"1.0","nomvedette":"Gundisalvus","souverain":"Castille","depart_lon":"-4.30000019"},"color":"rgb(153,153,153)","size":1.0},{"label":"CANTERBURY","source":"34596","target":"34584","id":"348","attributes":{"depart_lat":"52.20000076","datesource":"1313-10-01","id_personn":"1236","Weight":"2.0","nomvedette":"Walterus Reynolds","souverain":"Royaume d\u0027Angleterre","depart_lon":"-2.20000005"},"color":"rgb(153,153,153)","size":2.0},{"label":"CUENCA","source":"34454","target":"34443","id":"603","attributes":{"depart_lat":"42.88956833","datesource":"1373-03-04","id_personn":"2623","Weight":"1.0","nomvedette":"Petrus Gomez Barroso","souverain":"Castille","depart_lon":"-3.06251001"},"color":"rgb(153,153,153)","size":1.0},{"label":"ALBI","source":"34374","target":"34503","id":"70","attributes":{"depart_lat":"43.51197052","datesource":"1339-01-27","id_personn":"200","Weight":"1.0","nomvedette":"Pictavinus de Montesquieu","souverain":"Royaume de France","depart_lon":"3.88725996"},"color":"rgb(153,153,153)","size":1.0},{"label":"MINORI","source":"34179","target":"34675","id":"750","attributes":{"depart_lat":"40.64780045","datesource":"1363-11-13","id_personn":"3340","Weight":"1.0","nomvedette":"Romanus Surrentini","souverain":"Royaume de Naples","depart_lon":"14.60276031"},"color":"rgb(153,153,153)","size":1.0},{"label":"SAINT-MALO","source":"34216","target":"34565","id":"698","attributes":{"depart_lat":"48.51667023","datesource":"1376-04-07","id_personn":"3074","Weight":"1.0","nomvedette":"Jocelinus de Rohan","souverain":"Royaume de France","depart_lon":"-2.78332996"},"color":"rgb(153,153,153)","size":1.0},{"label":"SANTIAGO DE COMPOSTELA","source":"34676","target":"34489","id":"468","attributes":{"depart_lat":"43.4341011","datesource":"1366-11-13","id_personn":"1719","Weight":"1.0","nomvedette":"Alfonsus de Moscoso","souverain":"Castille","depart_lon":"-7.35333014"},"color":"rgb(153,153,153)","size":1.0},{"label":"VERONA","source":"34724","target":"34834","id":"833","attributes":{"depart_lat":"45.20000076","datesource":"1343-06-27","id_personn":"3846","Weight":"1.0","nomvedette":"Matthaeus Ribaldi","souverain":"Duché de Milan","depart_lon":"9.14999962"},"color":"rgb(153,153,153)","size":1.0},{"label":"HILDESHEIM","source":"34420","target":"34402","id":"602","attributes":{"depart_lat":"52.93000031","datesource":"1365-08-20","id_personn":"2615","Weight":"1.0","nomvedette":"Gerhardus de Berge","souverain":"Saint Empire Romain Germanique","depart_lon":"9.23999977"},"color":"rgb(153,153,153)","size":1.0},{"label":"CHIUSI","source":"34727","target":"34696","id":"447","attributes":{"depart_lat":"43.91999817","datesource":"1357-08-21","id_personn":"1662","Weight":"1.0","nomvedette":"Blasius Geminelli","souverain":"Etats Pontificaux","depart_lon":"12.90999985"},"color":"rgb(153,153,153)","size":1.0},{"label":"WINCHESTER","source":"34594","target":"34595","id":"1001","attributes":{"depart_lat":"51.06666946","datesource":"1345-12-09","id_personn":"5532","Weight":"1.0","nomvedette":"Guilelmus de Edyndone","souverain":"Royaume d\u0027Angleterre","depart_lon":"-1.78332996"},"color":"rgb(153,153,153)","size":1.0},{"label":"UMBRIATICO","source":"34714","target":"34918","id":"265","attributes":{"depart_lat":"40.91999817","datesource":"1333-10-30","id_personn":"880","Weight":"1.0","nomvedette":"Christophorus de Tramonto","souverain":"Royaume de Naples","depart_lon":"14.52999973"},"color":"rgb(153,153,153)","size":1.0},{"label":"EVREUX","source":"34563","target":"34304","id":"531","attributes":{"depart_lat":"49.43333054","datesource":"1376-11-12","id_personn":"2125","Weight":"1.0","nomvedette":"Bernardus Cariti","souverain":"Royaume de France","depart_lon":"1.08333004"},"color":"rgb(153,153,153)","size":1.0},{"label":"RAPOLLA","source":"34649","target":"34851","id":"865","attributes":{"depart_lat":"40.97999954","datesource":"1330-10-22","id_personn":"4121","Weight":"1.0","nomvedette":"Bernardus de Palma","souverain":"Royaume de Naples","depart_lon":"14.18999958"},"color":"rgb(153,153,153)","size":1.0},{"label":"JAEN","source":"34441","target":"34446","id":"577","attributes":{"depart_lat":"37.88000107","datesource":"1317-02-13","id_personn":"2452","Weight":"1.0","nomvedette":"Guterius Teller","souverain":"Castille","depart_lon":"-4.76999998"},"color":"rgb(153,153,153)","size":1.0},{"label":"VIVIERS","source":"34577","target":"26256","id":"588","attributes":{"depart_lat":"44.93333054","datesource":"1337-01-24","id_personn":"2510","Weight":"1.0","nomvedette":"Ademarus suprad.","souverain":"Royaume de France","depart_lon":"4.9000001"},"color":"rgb(153,153,153)","size":1.0},{"label":"COMACCHIO","source":"34748","target":"34700","id":"457","attributes":{"depart_lat":"41.68333054","datesource":"1333-07-30","id_personn":"1705","Weight":"1.0","nomvedette":"Bartholomaeus","souverain":"Etats Pontificaux","depart_lon":"13.01667023"},"color":"rgb(153,153,153)","size":1.0},{"label":"VESZPREM","source":"34618","target":"34624","id":"310","attributes":{"depart_lat":"46.25","datesource":"1345-03-02","id_personn":"1051","Weight":"2.0","nomvedette":"Galhardus de Carces","souverain":"Royaume de Hongrie","depart_lon":"20.73332977"},"color":"rgb(153,153,153)","size":2.0},{"label":"MEAUX","source":"34186","target":"34543","id":"104","attributes":{"depart_lat":"45.02917099","datesource":"1318-02-14","id_personn":"317","Weight":"2.0","nomvedette":"Guillelmus de Brosse","souverain":"Royaume de France","depart_lon":"3.84108996"},"color":"rgb(153,153,153)","size":2.0},{"label":"BOURGES","source":"34559","target":"34522","id":"277","attributes":{"depart_lat":"46.58332825","datesource":"1374-08-02","id_personn":"910","Weight":"1.0","nomvedette":"Bertrandus de Chanac","souverain":"Royaume de France","depart_lon":"0.33333001"},"color":"rgb(153,153,153)","size":1.0},{"label":"L\u0027AQUILA","source":"34694","target":"34189","id":"127","attributes":{"depart_lat":"42.34999847","datesource":"1342-07-16","id_personn":"395","Weight":"1.0","nomvedette":"Petrus Guilelmi de Toceo","souverain":"Royaume de Naples","depart_lon":"14.15999985"},"color":"rgb(153,153,153)","size":1.0},{"label":"VIENNE","source":"34541","target":"34580","id":"989","attributes":{"depart_lat":"45.75","datesource":"1306-07-06","id_personn":"5485","Weight":"1.0","nomvedette":"Briandus de Lagnieu","souverain":"Royaume de France","depart_lon":"4.8499999"},"color":"rgb(153,153,153)","size":1.0},{"label":"VIENNE","source":"34535","target":"34580","id":"768","attributes":{"depart_lat":"47.8666687","datesource":"1362-04-27","id_personn":"3504","Weight":"1.0","nomvedette":"Petrus de Gratia","souverain":"Royaume de France","depart_lon":"5.33333015"},"color":"rgb(153,153,153)","size":1.0},{"label":"AUTUN","source":"34524","target":"34512","id":"34","attributes":{"depart_lat":"50.16667175","datesource":"1342-09-25","id_personn":"109","Weight":"1.0","nomvedette":"Guilelmus de Auxona","souverain":"Bourgogne","depart_lon":"3.23333001"},"color":"rgb(153,153,153)","size":1.0},{"label":"ROUEN","source":"34548","target":"34563","id":"325","attributes":{"depart_lat":"43.18333054","datesource":"1375-08-27","id_personn":"1102","Weight":"2.0","nomvedette":"Petrus Judicis","souverain":"Royaume de France","depart_lon":"3.01"},"color":"rgb(153,153,153)","size":2.0},{"label":"SALAMANCA","source":"34492","target":"34488","id":"647","attributes":{"depart_lat":"37.40000153","datesource":"1361-06-18","id_personn":"2865","Weight":"1.0","nomvedette":"Alfonsus","souverain":"Castille","depart_lon":"-5.98000002"},"color":"rgb(153,153,153)","size":1.0},{"label":"VIC","source":"34309","target":"34498","id":"967","attributes":{"depart_lat":"42.59968948","datesource":"1346-07-24","id_personn":"5304","Weight":"2.0","nomvedette":"Hugo de Fenoylheto","souverain":"Couronne d\u0027Aragon","depart_lon":"2.97167993"},"color":"rgb(153,153,153)","size":2.0},{"label":"NAGYVARAD [ORADEA]","source":"34618","target":"34142","id":"419","attributes":{"depart_lat":"46.25","datesource":"1373-02-23","id_personn":"1467","Weight":"1.0","nomvedette":"Dominicus","souverain":"Royaume de Hongrie","depart_lon":"20.73332977"},"color":"rgb(153,153,153)","size":1.0},{"label":"TARBES","source":"34165","target":"34571","id":"29","attributes":{"depart_lat":"43.70211029","datesource":"1361-06-18","id_personn":"103","Weight":"1.0","nomvedette":"Bernardus","souverain":"Royaume de France","depart_lon":"-0.26210001"},"color":"rgb(153,153,153)","size":1.0},{"label":"GNIEZNO","source":"34129","target":"34128","id":"585","attributes":{"depart_lat":"50.06000137","datesource":"1374-04-28","id_personn":"2494","Weight":"1.0","nomvedette":"Joannes Suchywik","souverain":"Autre Etat","depart_lon":"19.95999908"},"color":"rgb(153,153,153)","size":1.0},{"label":"ASCOLI PICENO","source":"34189","target":"34644","id":"128","attributes":{"depart_lat":"42.34999847","datesource":"1353-05-10","id_personn":"396","Weight":"2.0","nomvedette":"Paulus de Bazzano","souverain":"Royaume de Naples","depart_lon":"13.39000034"},"color":"rgb(153,153,153)","size":2.0},{"label":"VIVIERS","source":"34303","target":"26256","id":"528","attributes":{"depart_lat":"44.56317902","datesource":"1365-09-05","id_personn":"2114","Weight":"1.0","nomvedette":"Bertrandus de Castronovo","souverain":"Royaume de France","depart_lon":"6.49529982"},"color":"rgb(153,153,153)","size":1.0},{"label":"LINCOLN","source":"34597","target":"34591","id":"658","attributes":{"depart_lat":"53.96667099","datesource":"1320-05-27","id_personn":"2923","Weight":"1.0","nomvedette":"Henricus Burwash, de Burhersh","souverain":"Royaume d\u0027Angleterre","depart_lon":"-1.08333004"},"color":"rgb(153,153,153)","size":1.0},{"label":"CHARTRES","source":"34561","target":"34233","id":"379","attributes":{"depart_lat":"49.25","datesource":"1371-01-08","id_personn":"1299","Weight":"1.0","nomvedette":"Garinus d\u0027Arcey","souverain":"Royaume de France","depart_lon":"4.03332996"},"color":"rgb(153,153,153)","size":1.0},{"label":"ASCOLI SATRIANO","source":"34208","target":"34201","id":"155","attributes":{"depart_lat":"41.00880814","datesource":"1311-05-19","id_personn":"556","Weight":"1.0","nomvedette":"Franciscus","souverain":"Royaume de Naples","depart_lon":"15.37827969"},"color":"rgb(153,153,153)","size":1.0},{"label":"SAINT-FLOUR","source":"29715","target":"34320","id":"565","attributes":{"depart_lat":"43.48923874","datesource":"1347-07-25","id_personn":"2324","Weight":"1.0","nomvedette":"Deodatus de Canillac","souverain":"Royaume de France","depart_lon":"2.76060009"},"color":"rgb(153,153,153)","size":1.0},{"label":"CAMBRAI","source":"34386","target":"34524","id":"342","attributes":{"depart_lat":"50.59999847","datesource":"1324-03-28","id_personn":"1203","Weight":"1.0","nomvedette":"Guido de Bolonia","souverain":"Bourgogne","depart_lon":"3.38000011"},"color":"rgb(153,153,153)","size":1.0},{"label":"CARTAGENA","source":"34488","target":"34438","id":"9","attributes":{"depart_lat":"40.97000122","datesource":"1349-07-24","id_personn":"38","Weight":"1.0","nomvedette":"Alfonsus","souverain":"Castille","depart_lon":"-5.67000008"},"color":"rgb(153,153,153)","size":1.0},{"label":"SAN LEONE","source":"34471","target":"34362","id":"652","attributes":{"depart_lat":"38.95000076","datesource":"1349-10-12","id_personn":"2896","Weight":"1.0","nomvedette":"Adam de Cimiliario","souverain":"Royaume de Naples","depart_lon":"16.29000092"},"color":"rgb(153,153,153)","size":1.0},{"label":"CLERMONT","source":"34557","target":"32240","id":"443","attributes":{"depart_lat":"48.8666687","datesource":"1376-01-02","id_personn":"1617","Weight":"1.0","nomvedette":"Henricus de la Tour","souverain":"Royaume de France","depart_lon":"2.33332992"},"color":"rgb(153,153,153)","size":1.0},{"label":"UBDINA","source":"34614","target":"34274","id":"493","attributes":{"depart_lat":"44.98944092","datesource":"1351-03-23","id_personn":"1815","Weight":"1.0","nomvedette":"Maurus","souverain":"Seigneurerie de Garay","depart_lon":"14.90583038"},"color":"rgb(153,153,153)","size":1.0},{"label":"BISIGNANO","source":"34381","target":"34656","id":"266","attributes":{"depart_lat":"39.08063126","datesource":"1359-03-22","id_personn":"882","Weight":"1.0","nomvedette":"Joannes Savelli","souverain":"Royaume de Naples","depart_lon":"16.24588013"},"color":"rgb(153,153,153)","size":1.0},{"label":"ALBI","source":"34552","target":"34503","id":"74","attributes":{"depart_lat":"49.58332825","datesource":"1354-11-28","id_personn":"202","Weight":"1.0","nomvedette":"Hugo Aubert","souverain":"Royaume de France","depart_lon":"3.01"},"color":"rgb(153,153,153)","size":1.0},{"label":"OURENSE","source":"34487","target":"34815","id":"182","attributes":{"depart_lat":"40.00484085","datesource":"1375-10-05","id_personn":"665","Weight":"1.0","nomvedette":"Martinus","souverain":"Castille","depart_lon":"-6.26065016"},"color":"rgb(153,153,153)","size":1.0},{"label":"COMACCHIO","source":"34726","target":"34700","id":"458","attributes":{"depart_lat":"43.11000061","datesource":"1371-11-24","id_personn":"1709","Weight":"1.0","nomvedette":"Theobaldus","souverain":"Etats Pontificaux","depart_lon":"12.39000034"},"color":"rgb(153,153,153)","size":1.0},{"label":"SALERNO","source":"34757","target":"34742","id":"529","attributes":{"depart_lat":"40.47999954","datesource":"1349-01-07","id_personn":"2114","Weight":"1.0","nomvedette":"Bertrandus de Castronovo","souverain":"Royaume de Naples","depart_lon":"17.23999977"},"color":"rgb(153,153,153)","size":1.0},{"label":"CANTERBURY","source":"34591","target":"34584","id":"353","attributes":{"depart_lat":"53.23332977","datesource":"1348-09-24","id_personn":"1239","Weight":"1.0","nomvedette":"Joannes de Ufford","souverain":"Royaume d\u0027Angleterre","depart_lon":"-0.53333002"},"color":"rgb(153,153,153)","size":1.0},{"label":"HALBERSTADT","source":"34422","target":"34401","id":"595","attributes":{"depart_lat":"49.79999924","datesource":"1357-03-16","id_personn":"2550","Weight":"1.0","nomvedette":"Ludovicus de Meissen","souverain":"Saint Empire Romain Germanique","depart_lon":"9.93999958"},"color":"rgb(153,153,153)","size":1.0},{"label":"AMALFI","source":"34644","target":"34179","id":"82","attributes":{"depart_lat":"42.86000061","datesource":"1374-12-20","id_personn":"247","Weight":"1.0","nomvedette":"Joannes Aquaviva","souverain":"Royaume de Naples","depart_lon":"13.57999992"},"color":"rgb(153,153,153)","size":1.0},{"label":"SQUILLACE","source":"34190","target":"34887","id":"133","attributes":{"depart_lat":"41.49969864","datesource":"1345-12-12","id_personn":"434","Weight":"1.0","nomvedette":"Nicolaus de Teramo","souverain":"Royaume de Naples","depart_lon":"13.71105003"},"color":"rgb(153,153,153)","size":1.0},{"label":"SENLIS","source":"34557","target":"34567","id":"196","attributes":{"depart_lat":"48.8666687","datesource":"1344-08-31","id_personn":"675","Weight":"1.0","nomvedette":"Petrus de Cros","souverain":"Royaume de France","depart_lon":"2.33332992"},"color":"rgb(153,153,153)","size":1.0},{"label":"PULA","source":"34695","target":"34847","id":"444","attributes":{"depart_lat":"45.22000122","datesource":"1353-01-18","id_personn":"1650","Weight":"1.0","nomvedette":"Benedictus","souverain":"République de Venise","depart_lon":"12.27000046"},"color":"rgb(153,153,153)","size":1.0},{"label":"SILVES","source":"34138","target":"34140","id":"907","attributes":{"depart_lat":"38.72000122","datesource":"1331-07-31","id_personn":"4584","Weight":"1.0","nomvedette":"Petrus","souverain":"Royaume du Portugal","depart_lon":"-9.14000034"},"color":"rgb(153,153,153)","size":1.0},{"label":"LAVAUR","source":"34501","target":"28930","id":"630","attributes":{"depart_lat":"44.20000076","datesource":"1317-10-26","id_personn":"2809","Weight":"1.0","nomvedette":"Rogerius d Armagnac","souverain":"Royaume de France","depart_lon":"0.63332999"},"color":"rgb(153,153,153)","size":1.0},{"label":"NUMANA","source":"34640","target":"34342","id":"604","attributes":{"depart_lat":"43.59999847","datesource":"1338-03-23","id_personn":"2638","Weight":"2.0","nomvedette":"Bonincontrus Tomei","souverain":"Etats Pontificaux","depart_lon":"13.5"},"color":"rgb(153,153,153)","size":2.0},{"label":"VALENCE","source":"34542","target":"34577","id":"971","attributes":{"depart_lat":"46.29999924","datesource":"1342-12-11","id_personn":"5310","Weight":"1.0","nomvedette":"Petrus de Chastellus","souverain":"Royaume de France","depart_lon":"4.83333015"},"color":"rgb(153,153,153)","size":1.0},{"label":"ACERENZA","source":"34812","target":"34160","id":"22","attributes":{"depart_lat":"40.84999847","datesource":"1343-01-29","id_personn":"78","Weight":"3.0","nomvedette":"Johannes Cortello de Neapoli","souverain":"Royaume de Naples","depart_lon":"14.27000046"},"color":"rgb(153,153,153)","size":3.0},{"label":"CASALNUOVA MONTEROTARO","source":"34672","target":"34292","id":"519","attributes":{"depart_lat":"40.89635849","datesource":"1343-06-09","id_personn":"2029","Weight":"1.0","nomvedette":"Petrus","souverain":"Royaume de Naples","depart_lon":"14.97593975"},"color":"rgb(153,153,153)","size":1.0},{"label":"CHIETI","source":"34196","target":"34694","id":"926","attributes":{"depart_lat":"40.66999817","datesource":"1373-09-05","id_personn":"4941","Weight":"1.0","nomvedette":"Elzarius de Sabrano,","souverain":"Royaume de Naples","depart_lon":"15.10999966"},"color":"rgb(153,153,153)","size":1.0},{"label":"MONOPOLI","source":"34741","target":"34808","id":"590","attributes":{"depart_lat":"39.59000015","datesource":"1373-05-16","id_personn":"2522","Weight":"1.0","nomvedette":"Joannes de Gallinario","souverain":"Royaume de Naples","depart_lon":"16.62000084"},"color":"rgb(153,153,153)","size":1.0},{"label":"VALENCIA","source":"34498","target":"34497","id":"966","attributes":{"depart_lat":"41.93999863","datesource":"1348-12-03","id_personn":"5304","Weight":"1.0","nomvedette":"Hugo de Fenoylheto","souverain":"Couronne d\u0027Aragon","depart_lon":"2.24000001"},"color":"rgb(153,153,153)","size":1.0},{"label":"EGER","source":"34142","target":"34619","id":"57","attributes":{"depart_lat":"47.06999969","datesource":"1377-10-02","id_personn":"172","Weight":"1.0","nomvedette":"Emericus Zudar","souverain":"Royaume de Hongrie","depart_lon":"21.92000008"},"color":"rgb(153,153,153)","size":1.0},{"label":"BOURGES","source":"31980","target":"34522","id":"136","attributes":{"depart_lat":"43.31504822","datesource":"1370-06-09","id_personn":"459","Weight":"1.0","nomvedette":"Petrus de Cros","souverain":"Royaume de France","depart_lon":"2.01119995"},"color":"rgb(153,153,153)","size":1.0},{"label":"KISSAMOS","source":"34482","target":"34254","id":"424","attributes":{"depart_lat":"36.83000183","datesource":"1371-03-03","id_personn":"1536","Weight":"1.0","nomvedette":"Marcus Marcellus","souverain":"République de Venise","depart_lon":"21.70999908"},"color":"rgb(153,153,153)","size":1.0},{"label":"BADAJOZ","source":"34446","target":"34432","id":"578","attributes":{"depart_lat":"37.77000046","datesource":"1335-01-19","id_personn":"2453","Weight":"1.0","nomvedette":"Fernandus Ramirez","souverain":"Castille","depart_lon":"-3.79999995"},"color":"rgb(153,153,153)","size":1.0},{"label":"CANTERBURY","source":"34592","target":"34584","id":"354","attributes":{"depart_lat":"51.5","datesource":"1349-10-07","id_personn":"1241","Weight":"2.0","nomvedette":"Simon de Islop Islip","souverain":"Royaume d\u0027Angleterre","depart_lon":"-0.11667"},"color":"rgb(153,153,153)","size":2.0},{"label":"TOLEDO","source":"34435","target":"34495","id":"76","attributes":{"depart_lat":"42.34999847","datesource":"1319-11-14","id_personn":"222","Weight":"1.0","nomvedette":"Joannes de Aragonia","souverain":"Castille","depart_lon":"-3.69000006"},"color":"rgb(153,153,153)","size":1.0},{"label":"KALOCSA","source":"34618","target":"34622","id":"416","attributes":{"depart_lat":"46.25","datesource":"1358-08-25","id_personn":"1465","Weight":"1.0","nomvedette":"Thomas de Kapolya","souverain":"Royaume de Hongrie","depart_lon":"20.73332977"},"color":"rgb(153,153,153)","size":1.0},{"label":"ESZTERGOM","source":"34619","target":"34620","id":"53","attributes":{"depart_lat":"47.90000153","datesource":"1330-09-17","id_personn":"169","Weight":"1.0","nomvedette":"Chanadinus de Telegd","souverain":"Royaume de Hongrie","depart_lon":"20.38332939"},"color":"rgb(153,153,153)","size":1.0},{"label":"NARBONNE","source":"34511","target":"34548","id":"210","attributes":{"depart_lat":"43.65000153","datesource":"1375-08-27","id_personn":"692","Weight":"1.0","nomvedette":"Joannes Rogerii","souverain":"Royaume de France","depart_lon":"0.58332998"},"color":"rgb(153,153,153)","size":1.0},{"label":"PALERMO","source":"34172","target":"34721","id":"58","attributes":{"depart_lat":"37.31000137","datesource":"1362-11-00","id_personn":"178","Weight":"1.0","nomvedette":"Octavianus de Labro","souverain":"Royaume de Sicile","depart_lon":"13.57999992"},"color":"rgb(153,153,153)","size":1.0},{"label":"MONDOÑEDO","source":"34430","target":"34676","id":"749","attributes":{"depart_lat":"42.40000153","datesource":"1343-02-04","id_personn":"3329","Weight":"1.0","nomvedette":"Valascus","souverain":"Castille","depart_lon":"-5.98000002"},"color":"rgb(153,153,153)","size":1.0},{"label":"UZES","source":"34544","target":"26339","id":"745","attributes":{"depart_lat":"44.51667023","datesource":"1366-08-11","id_personn":"3315","Weight":"1.0","nomvedette":"Bonuspar Virgili","souverain":"Royaume de France","depart_lon":"3.5"},"color":"rgb(153,153,153)","size":1.0},{"label":"POTENZA","source":"34481","target":"34732","id":"762","attributes":{"depart_lat":"40.74208832","datesource":"1364-03-13","id_personn":"3430","Weight":"1.0","nomvedette":"Jacobus de Fusco","souverain":"Royaume de Naples","depart_lon":"15.48229027"},"color":"rgb(153,153,153)","size":1.0},{"label":"DIGNE-LES-BAINS","source":"34532","target":"34288","id":"515","attributes":{"depart_lat":"43.43333054","datesource":"1327-11-17","id_personn":"2003","Weight":"1.0","nomvedette":"Elziarms de Villeneuve","souverain":"Comté de Provence","depart_lon":"6.73332977"},"color":"rgb(153,153,153)","size":1.0},{"label":"OURENSE","source":"34676","target":"34815","id":"748","attributes":{"depart_lat":"43.4341011","datesource":"1343-02-04","id_personn":"3328","Weight":"1.0","nomvedette":"Alvanis Perez de Biedma","souverain":"Castille","depart_lon":"-7.35333014"},"color":"rgb(153,153,153)","size":1.0},{"label":"RIEUX","source":"34367","target":"27132","id":"667","attributes":{"depart_lat":"43.73366165","datesource":"1324-07-20","id_personn":"2964","Weight":"1.0","nomvedette":"Joannes de Tesendria","souverain":"Royaume de France","depart_lon":"3.32274008"},"color":"rgb(153,153,153)","size":1.0},{"label":"CAGLIARI","source":"34745","target":"34664","id":"334","attributes":{"depart_lat":"40.72999954","datesource":"1369-02-08","id_personn":"1161","Weight":"1.0","nomvedette":"Bernardus","souverain":"Couronne d\u0027Aragon","depart_lon":"8.56000042"},"color":"rgb(153,153,153)","size":1.0},{"label":"RODEZ","source":"34525","target":"29983","id":"877","attributes":{"depart_lat":"43.21667099","datesource":"1349-06-17","id_personn":"4292","Weight":"1.0","nomvedette":"Raimundus d\u0027Aigrefeuille","souverain":"Royaume de France","depart_lon":"2.3499999"},"color":"rgb(153,153,153)","size":1.0},{"label":"LE PUY","source":"32240","target":"34186","id":"111","attributes":{"depart_lat":"45.7840004","datesource":"1342-09-25","id_personn":"321","Weight":"1.0","nomvedette":"Joannes de Champdorat","souverain":"Royaume de France","depart_lon":"3.09100008"},"color":"rgb(153,153,153)","size":1.0},{"label":"VERONA","source":"34835","target":"34834","id":"983","attributes":{"depart_lat":"45.54999924","datesource":"1332-02-10","id_personn":"5426","Weight":"1.0","nomvedette":"Nicolaus","souverain":"Duché de Milan","depart_lon":"11.53999996"},"color":"rgb(153,153,153)","size":1.0},{"label":"HALBERSTADT","source":"34409","target":"34401","id":"594","attributes":{"depart_lat":"51.36000061","datesource":"1346-07-24","id_personn":"2549","Weight":"1.0","nomvedette":"Albertus de Mansfelt","souverain":"Saint Empire Romain Germanique","depart_lon":"11.98999977"},"color":"rgb(153,153,153)","size":1.0},{"label":"ODENSE","source":"34147","target":"34425","id":"815","attributes":{"depart_lat":"55.70000076","datesource":"1364-10-05","id_personn":"3746","Weight":"1.0","nomvedette":"Ericus Krabbe","souverain":"Royaume du Danemark","depart_lon":"13.18332958"},"color":"rgb(153,153,153)","size":1.0},{"label":"THERMOPYLAE","source":"34601","target":"34965","id":"930","attributes":{"depart_lat":"38.52000046","datesource":"1311-05-21","id_personn":"4959","Weight":"1.0","nomvedette":"Thomas","souverain":"Athènes","depart_lon":"22.72999954"},"color":"rgb(153,153,153)","size":1.0},{"label":"SIGUENZA","source":"34446","target":"31971","id":"315","attributes":{"depart_lat":"37.77000046","datesource":"1358-10-05","id_personn":"1077","Weight":"1.0","nomvedette":"Joannes","souverain":"Castille","depart_lon":"-3.79999995"},"color":"rgb(153,153,153)","size":1.0},{"label":"LOMBEZ","source":"29983","target":"34368","id":"681","attributes":{"depart_lat":"44.36809158","datesource":"1363-01-18","id_personn":"2978","Weight":"1.0","nomvedette":"Guillelmus de Durfort","souverain":"Royaume de France","depart_lon":"2.58483005"},"color":"rgb(153,153,153)","size":1.0},{"label":"CUENCA","source":"34441","target":"34443","id":"470","attributes":{"depart_lat":"37.88000107","datesource":"1326-04-11","id_personn":"1723","Weight":"1.0","nomvedette":"Fernandus","souverain":"Castille","depart_lon":"-4.76999998"},"color":"rgb(153,153,153)","size":1.0},{"label":"ROCHESTER","source":"34593","target":"34107","id":"873","attributes":{"depart_lat":"52.6333313","datesource":"1373-01-31","id_personn":"4236","Weight":"1.0","nomvedette":"Thomas de Brintona","souverain":"Royaume d\u0027Angleterre","depart_lon":"1.29999995"},"color":"rgb(153,153,153)","size":1.0},{"label":"BARI","source":"34160","target":"34650","id":"23","attributes":{"depart_lat":"40.77637863","datesource":"1377-01-13","id_personn":"79","Weight":"1.0","nomvedette":"Bartholomaeus Prignano","souverain":"Royaume de Naples","depart_lon":"15.94223022"},"color":"rgb(153,153,153)","size":1.0},{"label":"BATH","source":"34594","target":"34583","id":"252","attributes":{"depart_lat":"51.06666946","datesource":"1366-12-14","id_personn":"804","Weight":"1.0","nomvedette":"Joannes Harewell","souverain":"Royaume d\u0027Angleterre","depart_lon":"-1.78332996"},"color":"rgb(153,153,153)","size":1.0},{"label":"SIGUENZA","source":"34435","target":"31971","id":"900","attributes":{"depart_lat":"42.34999847","datesource":"1361-06-18","id_personn":"4498","Weight":"1.0","nomvedette":"Joannes","souverain":"Castille","depart_lon":"-3.69000006"},"color":"rgb(153,153,153)","size":1.0},{"label":"TERRACINA","source":"34762","target":"34763","id":"619","attributes":{"depart_lat":"42.56999969","datesource":"1319-04-20","id_personn":"2698","Weight":"1.0","nomvedette":"Andreas","souverain":"Etats Pontificaux","depart_lon":"12.64999962"},"color":"rgb(153,153,153)","size":1.0},{"label":"CAMBRAI","source":"34483","target":"34524","id":"170","attributes":{"depart_lat":"50.63819885","datesource":"1371-06-06","id_personn":"617","Weight":"2.0","nomvedette":"Gerardus de Dainville","souverain":"Bourgogne","depart_lon":"2.25541997"},"color":"rgb(153,153,153)","size":2.0},{"label":"NOLA","source":"34829","target":"34714","id":"784","attributes":{"depart_lat":"41.5","datesource":"1328-09-06","id_personn":"3614","Weight":"1.0","nomvedette":"Petrus / Sparanus de s. Severo","souverain":"Royaume de Naples","depart_lon":"14.02999973"},"color":"rgb(153,153,153)","size":1.0},{"label":"MAGUELONE","source":"29715","target":"34374","id":"703","attributes":{"depart_lat":"43.48923874","datesource":"1361-01-29","id_personn":"3085","Weight":"1.0","nomvedette":"Petrus de Canillac","souverain":"Royaume de France","depart_lon":"2.76060009"},"color":"rgb(153,153,153)","size":1.0},{"label":"SILVES","source":"34139","target":"34140","id":"859","attributes":{"depart_lat":"41.15000153","datesource":"1365-11-05","id_personn":"4061","Weight":"1.0","nomvedette":"Joannes","souverain":"Royaume du Portugal","depart_lon":"-8.61999989"},"color":"rgb(153,153,153)","size":1.0},{"label":"CUENCA","source":"34446","target":"34443","id":"477","attributes":{"depart_lat":"37.77000046","datesource":"1378-05-01","id_personn":"1729","Weight":"1.0","nomvedette":"Nicolaus Viezma","souverain":"Castille","depart_lon":"-3.79999995"},"color":"rgb(153,153,153)","size":1.0},{"label":"FOSSOMBRONE","source":"34783","target":"34776","id":"553","attributes":{"depart_lat":"43.34999847","datesource":"1317-04-24","id_personn":"2215","Weight":"1.0","nomvedette":"Petrus Gabrielli","souverain":"Etats Pontificaux","depart_lon":"12.56999969"},"color":"rgb(153,153,153)","size":1.0},{"label":"VABRES-L\u0027ABBAYE","source":"34674","target":"28997","id":"963","attributes":{"depart_lat":"43.0865097","datesource":"1361-08-02","id_personn":"5293","Weight":"1.0","nomvedette":"Guilelmus Bragose","souverain":"Royaume de France","depart_lon":"1.87391996"},"color":"rgb(153,153,153)","size":1.0},{"label":"VIVIERS","source":"34543","target":"26256","id":"218","attributes":{"depart_lat":"48.95000076","datesource":"1325-10-07","id_personn":"731","Weight":"1.0","nomvedette":"Petrus de Jean, al. de Moussy","souverain":"Royaume de France","depart_lon":"2.86666989"},"color":"rgb(153,153,153)","size":1.0},{"label":"BISIGNANO","source":"34918","target":"34656","id":"264","attributes":{"depart_lat":"39.35435867","datesource":"1347-02-19","id_personn":"880","Weight":"1.0","nomvedette":"Christophorus de Tramonto","souverain":"Royaume de Naples","depart_lon":"16.91814041"},"color":"rgb(153,153,153)","size":1.0},{"label":"RAPOLLA","source":"34909","target":"34851","id":"866","attributes":{"depart_lat":"41.04943848","datesource":"1346-11-17","id_personn":"4123","Weight":"1.0","nomvedette":"Geraldus","souverain":"Royaume de Naples","depart_lon":"15.23416996"},"color":"rgb(153,153,153)","size":1.0},{"label":"TRINITAPOLI","source":"34650","target":"34953","id":"883","attributes":{"depart_lat":"41.11999893","datesource":"1317-06-12","id_personn":"4346","Weight":"1.0","nomvedette":"Galganus","souverain":"Royaume de Naples","depart_lon":"16.87000084"},"color":"rgb(153,153,153)","size":1.0},{"label":"LOMBEZ","source":"34538","target":"34368","id":"678","attributes":{"depart_lat":"45.84999847","datesource":"1348-09-17","id_personn":"2975","Weight":"1.0","nomvedette":"Bertrandus","souverain":"Royaume de France","depart_lon":"1.25"},"color":"rgb(153,153,153)","size":1.0},{"label":"ALBI","source":"34163","target":"34503","id":"64","attributes":{"depart_lat":"43.93204117","datesource":"1311-01-12","id_personn":"195","Weight":"2.0","nomvedette":"Geraldus","souverain":"Royaume de France","depart_lon":"0.61554998"},"color":"rgb(153,153,153)","size":2.0},{"label":"LAON","source":"34575","target":"34536","id":"634","attributes":{"depart_lat":"47.3833313","datesource":"1362-04-06","id_personn":"2812","Weight":"1.0","nomvedette":"Gaufridus le Meingre","souverain":"Royaume de France","depart_lon":"0.68333"},"color":"rgb(153,153,153)","size":1.0},{"label":"VITERBO","source":"34929","target":"34837","id":"1006","attributes":{"depart_lat":"41.88590622","datesource":"1312-03-10","id_personn":"5552","Weight":"2.0","nomvedette":"Joannes","souverain":"Etats Pontificaux","depart_lon":"12.50615597"},"color":"rgb(153,153,153)","size":2.0},{"label":"SIGUENZA","source":"34815","target":"31971","id":"180","attributes":{"depart_lat":"42.33000183","datesource":"1375-10-05","id_personn":"664","Weight":"1.0","nomvedette":"Joannes Garcia Manrique","souverain":"Castille","depart_lon":"-7.86999989"},"color":"rgb(153,153,153)","size":1.0},{"label":"SALAMANCA","source":"34447","target":"34488","id":"880","attributes":{"depart_lat":"42.59000015","datesource":"1375-06-13","id_personn":"4320","Weight":"1.0","nomvedette":"Alfonsus","souverain":"Castille","depart_lon":"-5.57000017"},"color":"rgb(153,153,153)","size":1.0},{"label":"SAINT-MALO","source":"34560","target":"34565","id":"496","attributes":{"depart_lat":"48.01","datesource":"1333-01-22","id_personn":"1851","Weight":"1.0","nomvedette":"Ivo de Boisboessel","souverain":"Royaume de France","depart_lon":"-4.0999999"},"color":"rgb(153,153,153)","size":1.0},{"label":"TORCELLO","source":"34938","target":"34904","id":"932","attributes":{"depart_lat":"37.45","datesource":"1327-06-02","id_personn":"4982","Weight":"1.0","nomvedette":"Bartholomaeus Pasquali","souverain":"République de Venise","depart_lon":"25.33"},"color":"rgb(153,153,153)","size":1.0},{"label":"ESZTERGOM","source":"34621","target":"34620","id":"613","attributes":{"depart_lat":"47.68333054","datesource":"1376-01-23","id_personn":"2669","Weight":"1.0","nomvedette":"Joannes","souverain":"Royaume de Hongrie","depart_lon":"17.63332939"},"color":"rgb(153,153,153)","size":1.0},{"label":"LUCON","source":"34577","target":"34371","id":"113","attributes":{"depart_lat":"44.93333054","datesource":"1354-05-05","id_personn":"323","Weight":"1.0","nomvedette":"Joannes","souverain":"Royaume de France","depart_lon":"4.9000001"},"color":"rgb(153,153,153)","size":1.0},{"label":"BITONTO","source":"34190","target":"34658","id":"284","attributes":{"depart_lat":"41.49969864","datesource":"1348-11-10","id_personn":"968","Weight":"1.0","nomvedette":"Jacobus Falconieri","souverain":"Royaume de Naples","depart_lon":"13.71105003"},"color":"rgb(153,153,153)","size":1.0},{"label":"TULLE","source":"34564","target":"29713","id":"953","attributes":{"depart_lat":"45.75","datesource":"1342-07-18","id_personn":"5215","Weight":"1.0","nomvedette":"Hugo Roger","souverain":"Royaume de France","depart_lon":"-0.63332999"},"color":"rgb(153,153,153)","size":1.0},{"label":"CIUDAD RODRIGO","source":"34451","target":"34440","id":"427","attributes":{"depart_lat":"42.02999878","datesource":"1324-07-27","id_personn":"1582","Weight":"1.0","nomvedette":"Joannes","souverain":"Castille","depart_lon":"-4.53999996"},"color":"rgb(153,153,153)","size":1.0},{"label":"SENS","source":"34557","target":"34568","id":"904","attributes":{"depart_lat":"48.8666687","datesource":"1344-12-03","id_personn":"4541","Weight":"1.0","nomvedette":"Guillelmus de Meleduno","souverain":"Royaume de France","depart_lon":"2.33332992"},"color":"rgb(153,153,153)","size":1.0},{"label":"AGEN","source":"34535","target":"34501","id":"45","attributes":{"depart_lat":"47.8666687","datesource":"1306-11-11","id_personn":"151","Weight":"1.0","nomvedette":"Bertrandus de Got","souverain":"Royaume de France","depart_lon":"5.33333015"},"color":"rgb(153,153,153)","size":1.0},{"label":"PERIGUEUX","source":"34511","target":"34558","id":"841","attributes":{"depart_lat":"43.65000153","datesource":"1347-10-15","id_personn":"3945","Weight":"1.0","nomvedette":"Arnaldus","souverain":"Royaume de France","depart_lon":"0.58332998"},"color":"rgb(153,153,153)","size":1.0},{"label":"CANTERBURY","source":"34308","target":"34584","id":"355","attributes":{"depart_lat":"52.38613129","datesource":"1366-07-24","id_personn":"1242","Weight":"1.0","nomvedette":"Simon Langaam","souverain":"Royaume d\u0027Angleterre","depart_lon":"-0.24764"},"color":"rgb(153,153,153)","size":1.0},{"label":"MEAUX","source":"34516","target":"34543","id":"221","attributes":{"depart_lat":"49.26667023","datesource":"1321-02-17","id_personn":"731","Weight":"1.0","nomvedette":"Petrus de Jean, al. de Moussy","souverain":"Royaume de France","depart_lon":"-0.69999999"},"color":"rgb(153,153,153)","size":1.0},{"label":"TOLEDO","source":"34451","target":"34495","id":"828","attributes":{"depart_lat":"42.02999878","datesource":"1353-06-17","id_personn":"3804","Weight":"1.0","nomvedette":"Blasius Fernandez de Toledo","souverain":"Castille","depart_lon":"-4.53999996"},"color":"rgb(153,153,153)","size":1.0},{"label":"DUNBLANE","source":"34581","target":"34298","id":"522","attributes":{"depart_lat":"57.1333313","datesource":"1361-06-18","id_personn":"2068","Weight":"1.0","nomvedette":"Walterus Cambuslang","souverain":"Royaume d\u0027Ecosse","depart_lon":"-2.0999999"},"color":"rgb(153,153,153)","size":1.0},{"label":"MONTE CORVINO ROVELLA","source":"34208","target":"34810","id":"263","attributes":{"depart_lat":"41.00880814","datesource":"1368-11-03","id_personn":"873","Weight":"1.0","nomvedette":"Constantinus de Termulis","souverain":"Royaume de Naples","depart_lon":"15.37827969"},"color":"rgb(153,153,153)","size":1.0},{"label":"CARCASSONNE","source":"27132","target":"34525","id":"376","attributes":{"depart_lat":"43.26478958","datesource":"1371-12-12","id_personn":"1285","Weight":"1.0","nomvedette":"Petrus de s. Martiali","souverain":"Royaume de France","depart_lon":"1.19971001"},"color":"rgb(153,153,153)","size":1.0},{"label":"ROUEN","source":"34513","target":"34563","id":"187","attributes":{"depart_lat":"47.79999924","datesource":"1339-02-15","id_personn":"671","Weight":"1.0","nomvedette":"Aimericus Guenaud","souverain":"Royaume de France","depart_lon":"3.56666994"},"color":"rgb(153,153,153)","size":1.0},{"label":"LIMOGES","source":"34558","target":"34538","id":"648","attributes":{"depart_lat":"45.18333054","datesource":"1317-01-12","id_personn":"2876","Weight":"1.0","nomvedette":"Geraldus Roger","souverain":"Royaume de France","depart_lon":"0.71666998"},"color":"rgb(153,153,153)","size":1.0},{"label":"AMIENS","source":"34563","target":"34505","id":"86","attributes":{"depart_lat":"49.43333054","datesource":"1373-02-07","id_personn":"252","Weight":"1.0","nomvedette":"Joannes de la Grange","souverain":"Royaume de France","depart_lon":"1.08333004"},"color":"rgb(153,153,153)","size":1.0},{"label":"VIVIERS","source":"34574","target":"26256","id":"1010","attributes":{"depart_lat":"43.59999847","datesource":"1374-10-13","id_personn":"5568","Weight":"1.0","nomvedette":"Petrus de Sortenac","souverain":"Royaume de France","depart_lon":"1.43333006"},"color":"rgb(153,153,153)","size":1.0},{"label":"HEREFORD","source":"34582","target":"34590","id":"601","attributes":{"depart_lat":"53.18553925","datesource":"1375-09-12","id_personn":"2586","Weight":"1.0","nomvedette":"Joannes Gilberti","souverain":"Royaume d\u0027Angleterre","depart_lon":"-4.16107988"},"color":"rgb(153,153,153)","size":1.0},{"label":"LIMOGES","source":"34505","target":"34538","id":"649","attributes":{"depart_lat":"49.90000153","datesource":"1343-08-27","id_personn":"2879","Weight":"1.0","nomvedette":"Nicolaus de Besse","souverain":"Royaume de France","depart_lon":"2.29999995"},"color":"rgb(153,153,153)","size":1.0},{"label":"MEAUX","source":"34563","target":"34543","id":"728","attributes":{"depart_lat":"49.43333054","datesource":"1361-09-06","id_personn":"3235","Weight":"1.0","nomvedette":"Joannes Royer","souverain":"Royaume de France","depart_lon":"1.08333004"},"color":"rgb(153,153,153)","size":1.0},{"label":"NORWICH","source":"34592","target":"34593","id":"789","attributes":{"depart_lat":"51.5","datesource":"1325-09-19","id_personn":"3626","Weight":"1.0","nomvedette":"Guilelmus de Ayreminne","souverain":"Royaume d\u0027Angleterre","depart_lon":"-0.11667"},"color":"rgb(153,153,153)","size":1.0},{"label":"LYON","source":"34577","target":"34541","id":"690","attributes":{"depart_lat":"44.93333054","datesource":"1342-10-07","id_personn":"3039","Weight":"1.0","nomvedette":"Henricus de Villars","souverain":"Royaume de France","depart_lon":"4.9000001"},"color":"rgb(153,153,153)","size":1.0},{"label":"BEAUVAIS","source":"34516","target":"34518","id":"93","attributes":{"depart_lat":"49.26667023","datesource":"1375-01-31","id_personn":"288","Weight":"2.0","nomvedette":"Milo de Dormans","souverain":"Royaume de France","depart_lon":"-0.69999999"},"color":"rgb(153,153,153)","size":2.0},{"label":"URBINO","source":"34789","target":"34828","id":"37","attributes":{"depart_lat":"43.52000046","datesource":"1350-05-03","id_personn":"135","Weight":"1.0","nomvedette":"Franciscus Brancaleoni","souverain":"Etats Pontificaux","depart_lon":"13.23999977"},"color":"rgb(153,153,153)","size":1.0},{"label":"RIEUX","source":"34518","target":"27132","id":"406","attributes":{"depart_lat":"49.43333054","datesource":"1321-02-27","id_personn":"1440","Weight":"1.0","nomvedette":"Bertrandus","souverain":"Royaume de France","depart_lon":"2.08332992"},"color":"rgb(153,153,153)","size":1.0},{"label":"TARAZONA","source":"34445","target":"34493","id":"933","attributes":{"depart_lat":"42.13999939","datesource":"1324-12-17","id_personn":"4998","Weight":"1.0","nomvedette":"Bertrandus de Cormidela","souverain":"Couronne d\u0027Aragon","depart_lon":"-0.41"},"color":"rgb(153,153,153)","size":1.0},{"label":"CASTRES","source":"34574","target":"34526","id":"391","attributes":{"depart_lat":"43.59999847","datesource":"1326-12-05","id_personn":"1374","Weight":"1.0","nomvedette":"Amelius de Lautrec","souverain":"Royaume de France","depart_lon":"1.43333006"},"color":"rgb(153,153,153)","size":1.0},{"label":"FIORENTINO","source":"34652","target":"34319","id":"562","attributes":{"depart_lat":"41.13000107","datesource":"1374-12-04","id_personn":"2320","Weight":"1.0","nomvedette":"Elias","souverain":"Royaume de Naples","depart_lon":"14.77000046"},"color":"rgb(153,153,153)","size":1.0},{"label":"RIEUX","source":"34520","target":"27132","id":"872","attributes":{"depart_lat":"43.34999847","datesource":"1371-12-12","id_personn":"4229","Weight":"1.0","nomvedette":"Joannes","souverain":"Royaume de France","depart_lon":"3.25"},"color":"rgb(153,153,153)","size":1.0},{"label":"SENIGALLIA","source":"34227","target":"34749","id":"903","attributes":{"depart_lat":"43.14411163","datesource":"1308-06-30","id_personn":"4525","Weight":"1.0","nomvedette":"Gratias","souverain":"Etats Pontificaux","depart_lon":"13.05661964"},"color":"rgb(153,153,153)","size":1.0},{"label":"VABRES-L\u0027ABBAYE","source":"34557","target":"28997","id":"962","attributes":{"depart_lat":"48.8666687","datesource":"1352-10-17","id_personn":"5292","Weight":"1.0","nomvedette":"Bertrandus de Pebrac","souverain":"Royaume de France","depart_lon":"2.33332992"},"color":"rgb(153,153,153)","size":1.0},{"label":"SASSARI","source":"34846","target":"34745","id":"333","attributes":{"depart_lat":"40.66564941","datesource":"1368-01-12","id_personn":"1161","Weight":"1.0","nomvedette":"Bernardus","souverain":"Sardaigne","depart_lon":"8.73952961"},"color":"rgb(153,153,153)","size":1.0},{"label":"FAMAGUSTA","source":"34465","target":"34315","id":"556","attributes":{"depart_lat":"34.67499924","datesource":"1346-06-26","id_personn":"2246","Weight":"1.0","nomvedette":"Iterius de Nabinalis","souverain":"Royaume de Chypre","depart_lon":"33.03332901"},"color":"rgb(153,153,153)","size":1.0},{"label":"CARTAGENA","source":"34495","target":"34438","id":"380","attributes":{"depart_lat":"39.86000061","datesource":"1326-09-03","id_personn":"1311","Weight":"1.0","nomvedette":"Petrus Gomez de Barroso","souverain":"Castille","depart_lon":"-4.30000019"},"color":"rgb(153,153,153)","size":1.0},{"label":"HUESCA","source":"34444","target":"34445","id":"241","attributes":{"depart_lat":"41.97999954","datesource":"1357-11-24","id_personn":"784","Weight":"3.0","nomvedette":"Guilelmus de Torrelles","souverain":"Couronne d\u0027Aragon","depart_lon":"2.80999994"},"color":"rgb(153,153,153)","size":3.0},{"label":"PORTO","source":"34136","target":"34139","id":"857","attributes":{"depart_lat":"38.56999969","datesource":"1328-01-15","id_personn":"4058","Weight":"1.0","nomvedette":"Velascus Martins","souverain":"Royaume du Portugal","depart_lon":"-7.90999985"},"color":"rgb(153,153,153)","size":1.0},{"label":"MANFREDONIA","source":"34669","target":"34796","id":"339","attributes":{"depart_lat":"41.18333054","datesource":"1361-11-08","id_personn":"1169","Weight":"1.0","nomvedette":"Feolus","souverain":"Royaume de Naples","depart_lon":"13.96667004"},"color":"rgb(153,153,153)","size":1.0},{"label":"SAINT-PONS-DE-THOMIERES","source":"34269","target":"29715","id":"485","attributes":{"depart_lat":"43.00172043","datesource":"1361-01-29","id_personn":"1766","Weight":"1.0","nomvedette":"Joannes de Rochechouart","souverain":"Royaume de France","depart_lon":"1.13654995"},"color":"rgb(153,153,153)","size":1.0},{"label":"REGGIODICALABRIA","source":"34758","target":"34737","id":"870","attributes":{"depart_lat":"41.25","datesource":"1372-01-19","id_personn":"4195","Weight":"1.0","nomvedette":"Thomas de Porta","souverain":"Royaume de Naples","depart_lon":"14.06000042"},"color":"rgb(153,153,153)","size":1.0},{"label":"LANGRES","source":"34561","target":"34535","id":"661","attributes":{"depart_lat":"49.25","datesource":"1336-01-31","id_personn":"2942","Weight":"1.0","nomvedette":"Guido Baudet","souverain":"Royaume de France","depart_lon":"4.03332996"},"color":"rgb(153,153,153)","size":1.0},{"label":"MAGUELONE","source":"34557","target":"34374","id":"341","attributes":{"depart_lat":"48.8666687","datesource":"1306-01-22","id_personn":"1202","Weight":"1.0","nomvedette":"Petrus de Levis et Mirapicio","souverain":"Royaume de France","depart_lon":"2.33332992"},"color":"rgb(153,153,153)","size":1.0},{"label":"LANGRES","source":"34501","target":"34535","id":"46","attributes":{"depart_lat":"44.20000076","datesource":"1306-00-00","id_personn":"151","Weight":"1.0","nomvedette":"Bertrandus de Goth","souverain":"Royaume de France","depart_lon":"0.63332999"},"color":"rgb(153,153,153)","size":1.0},{"label":"CHIOGGIA","source":"34847","target":"34695","id":"445","attributes":{"depart_lat":"44.87528992","datesource":"1353-01-18","id_personn":"1651","Weight":"1.0","nomvedette":"Leonardus de Cagnoli","souverain":"République de Venise","depart_lon":"13.84202957"},"color":"rgb(153,153,153)","size":1.0},{"label":"COUTANCES","source":"34233","target":"34530","id":"490","attributes":{"depart_lat":"48.45000076","datesource":"1371-03-24","id_personn":"1785","Weight":"1.0","nomvedette":"Silvester de la Cervelle","souverain":"Royaume de France","depart_lon":"1.5"},"color":"rgb(153,153,153)","size":1.0},{"label":"TROYES","source":"34557","target":"34576","id":"85","attributes":{"depart_lat":"48.8666687","datesource":"1324-04-26","id_personn":"251","Weight":"1.0","nomvedette":"Joannes de Cherchemont","souverain":"Royaume de France","depart_lon":"2.33332992"},"color":"rgb(153,153,153)","size":1.0},{"label":"OURENSE","source":"34499","target":"34815","id":"177","attributes":{"depart_lat":"41.52000046","datesource":"1311-04-30","id_personn":"657","Weight":"1.0","nomvedette":"Gundisalvus Daza","souverain":"Castille","depart_lon":"-5.75"},"color":"rgb(153,153,153)","size":1.0},{"label":"FORLIMPOPOLI","source":"34783","target":"34775","id":"567","attributes":{"depart_lat":"43.34999847","datesource":"1321-04-30","id_personn":"2353","Weight":"1.0","nomvedette":"Ubaldus Gabrieli","souverain":"Etats Pontificaux","depart_lon":"12.56999969"},"color":"rgb(153,153,153)","size":1.0},{"label":"TROYES","source":"34555","target":"34576","id":"944","attributes":{"depart_lat":"47.91667175","datesource":"1370-09-20","id_personn":"5088","Weight":"1.0","nomvedette":"Joannes de Braque","souverain":"Royaume de France","depart_lon":"1.89999998"},"color":"rgb(153,153,153)","size":1.0},{"label":"MAGUELONE","source":"34551","target":"34374","id":"704","attributes":{"depart_lat":"43.83332825","datesource":"1367-03-13","id_personn":"3087","Weight":"1.0","nomvedette":"Gaucelmus de Deux","souverain":"Royaume de France","depart_lon":"4.3499999"},"color":"rgb(153,153,153)","size":1.0},{"label":"SAINT-FLOUR","source":"34544","target":"34320","id":"276","attributes":{"depart_lat":"44.51667023","datesource":"1361-11-19","id_personn":"908","Weight":"1.0","nomvedette":"Petrus d Estaing","souverain":"Royaume de France","depart_lon":"3.5"},"color":"rgb(153,153,153)","size":1.0},{"label":"MIREPOIX","source":"34556","target":"34674","id":"118","attributes":{"depart_lat":"43.1166687","datesource":"1326-03-03","id_personn":"345","Weight":"1.0","nomvedette":"Jacobus Fournier, fut. Ben. XII","souverain":"Royaume de France","depart_lon":"1.60000002"},"color":"rgb(153,153,153)","size":1.0},{"label":"CERVIA","source":"34693","target":"34692","id":"327","attributes":{"depart_lat":"44.15000153","datesource":"1324-07-16","id_personn":"1109","Weight":"1.0","nomvedette":"Gerardus d\u0027Anglars","souverain":"Etats Pontificaux","depart_lon":"12.23999977"},"color":"rgb(153,153,153)","size":1.0},{"label":"CALAHORRA","source":"34430","target":"34437","id":"156","attributes":{"depart_lat":"42.40000153","datesource":"1346-02-13","id_personn":"592","Weight":"1.0","nomvedette":"Petrus","souverain":"Castille","depart_lon":"-5.98000002"},"color":"rgb(153,153,153)","size":1.0},{"label":"EVREUX","source":"34552","target":"34304","id":"207","attributes":{"depart_lat":"49.58332825","datesource":"1375-02-07","id_personn":"682","Weight":"1.0","nomvedette":"Guilelmus de Estouteville","souverain":"Royaume de France","depart_lon":"3.01"},"color":"rgb(153,153,153)","size":1.0},{"label":"CHIETI","source":"34812","target":"34694","id":"925","attributes":{"depart_lat":"40.84999847","datesource":"1326-02-21","id_personn":"4935","Weight":"1.0","nomvedette":"Joannes Crispano","souverain":"Royaume de Naples","depart_lon":"14.27000046"},"color":"rgb(153,153,153)","size":1.0},{"label":"TOULOUSE","source":"34580","target":"34574","id":"935","attributes":{"depart_lat":"45.51667023","datesource":"1327-12-19","id_personn":"5027","Weight":"1.0","nomvedette":"Guilelmus de Laudun","souverain":"Royaume de France","depart_lon":"4.86667013"},"color":"rgb(153,153,153)","size":1.0},{"label":"CHUR","source":"34404","target":"34390","id":"505","attributes":{"depart_lat":"47.68000031","datesource":"1325-06-12","id_personn":"1947","Weight":"2.0","nomvedette":"Joannes Pfefferhart","souverain":"Saint Empire Romain Germanique","depart_lon":"9.17000008"},"color":"rgb(153,153,153)","size":2.0},{"label":"SAINT-PONS-DE-THOMIERES","source":"34566","target":"29715","id":"853","attributes":{"depart_lat":"44.8833313","datesource":"1324-11-21","id_personn":"4047","Weight":"1.0","nomvedette":"Raimundus de Roquecorne","souverain":"Royaume de France","depart_lon":"1.21667004"},"color":"rgb(153,153,153)","size":1.0},{"label":"MARSEILLE","source":"34573","target":"34382","id":"720","attributes":{"depart_lat":"43.1167984","datesource":"1368-12-09","id_personn":"3197","Weight":"1.0","nomvedette":"Guillelmus de la Voute","souverain":"Comté de Provence","depart_lon":"5.93333006"},"color":"rgb(153,153,153)","size":1.0},{"label":"QUIMPER","source":"26341","target":"34560","id":"495","attributes":{"depart_lat":"48.78482056","datesource":"1330-08-31","id_personn":"1851","Weight":"1.0","nomvedette":"Ivo de Boisboessel","souverain":"Royaume de France","depart_lon":"-3.23147988"},"color":"rgb(153,153,153)","size":1.0},{"label":"MONOPOLI","source":"34662","target":"34808","id":"757","attributes":{"depart_lat":"40.63999939","datesource":"1312-06-28","id_personn":"3364","Weight":"1.0","nomvedette":"Franciscus","souverain":"Royaume de Naples","depart_lon":"17.93000031"},"color":"rgb(153,153,153)","size":1.0},{"label":"TARRAGONA","source":"34220","target":"34494","id":"324","attributes":{"depart_lat":"41.65000153","datesource":"1317-03-26","id_personn":"1100","Weight":"1.0","nomvedette":"Eximinus de Luna","souverain":"Couronne d\u0027Aragon","depart_lon":"-0.88999999"},"color":"rgb(153,153,153)","size":1.0},{"label":"DUNKELD","source":"34589","target":"34301","id":"524","attributes":{"depart_lat":"55.83332825","datesource":"1372-07-26","id_personn":"2093","Weight":"1.0","nomvedette":"Michael Monymusk","souverain":"Royaume d\u0027Ecosse","depart_lon":"-4.25"},"color":"rgb(153,153,153)","size":1.0},{"label":"TELESE","source":"34790","target":"34937","id":"640","attributes":{"depart_lat":"41.04999924","datesource":"1372-07-14","id_personn":"2835","Weight":"1.0","nomvedette":"Jacobus","souverain":"Royaume de Naples","depart_lon":"15.77999973"},"color":"rgb(153,153,153)","size":1.0},{"label":"SAINT-BERTRAND-DE-COMMINGES","source":"34368","target":"34272","id":"679","attributes":{"depart_lat":"43.47615051","datesource":"1352-10-17","id_personn":"2975","Weight":"1.0","nomvedette":"Bertrandus de Cosnac","souverain":"Royaume de France","depart_lon":"0.91061002"},"color":"rgb(153,153,153)","size":1.0},{"label":"TOURS","source":"34515","target":"34575","id":"952","attributes":{"depart_lat":"48.68333054","datesource":"1357-07-03","id_personn":"5193","Weight":"1.0","nomvedette":"Philippus Blanche,","souverain":"Royaume de France","depart_lon":"-1.36667001"},"color":"rgb(153,153,153)","size":1.0},{"label":"WORCESTER","source":"34586","target":"34596","id":"997","attributes":{"depart_lat":"50.83332825","datesource":"1368-10-11","id_personn":"5523","Weight":"1.0","nomvedette":"Guillelmus Lynne","souverain":"Royaume d\u0027Angleterre","depart_lon":"-0.78333002"},"color":"rgb(153,153,153)","size":1.0},{"label":"TORTOSA","source":"34434","target":"34496","id":"234","attributes":{"depart_lat":"41.40000153","datesource":"1346-06-26","id_personn":"782","Weight":"2.0","nomvedette":"Bernardus Oliver","souverain":"Couronne d\u0027Aragon","depart_lon":"2.17000008"},"color":"rgb(153,153,153)","size":2.0},{"label":"IDANHA-A-NOVA","source":"34138","target":"34305","id":"532","attributes":{"depart_lat":"38.72000122","datesource":"1319-07-07","id_personn":"2131","Weight":"1.0","nomvedette":"Martinus","souverain":"Royaume du Portugal","depart_lon":"-9.14000034"},"color":"rgb(153,153,153)","size":1.0},{"label":"TEANO","source":"34179","target":"34758","id":"81","attributes":{"depart_lat":"40.64780045","datesource":"1353-05-24","id_personn":"246","Weight":"1.0","nomvedette":"Marinus de Judice","souverain":"Royaume de Naples","depart_lon":"14.60276031"},"color":"rgb(153,153,153)","size":1.0},{"label":"ACERNO","source":"34366","target":"34158","id":"16","attributes":{"depart_lat":"40.7029686","datesource":"1349-05-18","id_personn":"54","Weight":"2.0","nomvedette":"Matthaeus de Marino","souverain":"Royaume de Naples","depart_lon":"14.54718971"},"color":"rgb(153,153,153)","size":2.0},{"label":"VANNES","source":"34565","target":"34578","id":"981","attributes":{"depart_lat":"48.65000153","datesource":"1360-04-22","id_personn":"5404","Weight":"1.0","nomvedette":"Graufridus de Rohan","souverain":"Royaume de France","depart_lon":"-2.01666999"},"color":"rgb(153,153,153)","size":1.0},{"label":"LUNI","source":"34834","target":"34372","id":"692","attributes":{"depart_lat":"45.43999863","datesource":"1351-10-24","id_personn":"3058","Weight":"1.0","nomvedette":"Gabriel de Malaspinis","souverain":"Duché de Milan","depart_lon":"10.98999977"},"color":"rgb(153,153,153)","size":1.0},{"label":"BRESSANONE","source":"34333","target":"34217","id":"305","attributes":{"depart_lat":"46.87371063","datesource":"1364-02-14","id_personn":"1037","Weight":"1.0","nomvedette":"Joannes de Lenzburg","souverain":"Monarchie de Habsbourg","depart_lon":"14.29442024"},"color":"rgb(153,153,153)","size":1.0},{"label":"LAON","source":"34569","target":"34536","id":"331","attributes":{"depart_lat":"49.3666687","datesource":"1351-10-22","id_personn":"1143","Weight":"1.0","nomvedette":"Robertus le Coq","souverain":"Royaume de France","depart_lon":"3.33332992"},"color":"rgb(153,153,153)","size":1.0},{"label":"CSANAD PALOTA","source":"34620","target":"34618","id":"417","attributes":{"depart_lat":"47.79999924","datesource":"1350-05-31","id_personn":"1465","Weight":"1.0","nomvedette":"Thomas de Kapolya","souverain":"Royaume de Hongrie","depart_lon":"18.75"},"color":"rgb(153,153,153)","size":1.0},{"label":"ALBI","source":"34536","target":"34503","id":"66","attributes":{"depart_lat":"49.56666946","datesource":"1313-07-31","id_personn":"196","Weight":"1.0","nomvedette":"Beraldus de Fargis","souverain":"Royaume de France","depart_lon":"3.61666989"},"color":"rgb(153,153,153)","size":1.0},{"label":"AIX-EN-PROVENCE","source":"29717","target":"34187","id":"125","attributes":{"depart_lat":"43.81893921","datesource":"1318-09-11","id_personn":"371","Weight":"1.0","nomvedette":"Petrus Despres","souverain":"Comté de Provence","depart_lon":"6.08911991"},"color":"rgb(153,153,153)","size":1.0},{"label":"HUESCA","source":"34434","target":"34445","id":"574","attributes":{"depart_lat":"41.40000153","datesource":"1324-11-14","id_personn":"2441","Weight":"2.0","nomvedette":"Gaston de Moncada","souverain":"Couronne d\u0027Aragon","depart_lon":"2.17000008"},"color":"rgb(153,153,153)","size":2.0},{"label":"VIVIERS","source":"34541","target":"26256","id":"970","attributes":{"depart_lat":"45.75","datesource":"1331-04-24","id_personn":"5309","Weight":"1.0","nomvedette":"Henricus de Villars","souverain":"Royaume de France","depart_lon":"4.8499999"},"color":"rgb(153,153,153)","size":1.0},{"label":"SALERNO","source":"34668","target":"34742","id":"882","attributes":{"depart_lat":"41.13000107","datesource":"1334-02-18","id_personn":"4331","Weight":"1.0","nomvedette":"Benedictus","souverain":"Royaume de Naples","depart_lon":"14.19999981"},"color":"rgb(153,153,153)","size":1.0},{"label":"LECTOURE","source":"34501","target":"34163","id":"645","attributes":{"depart_lat":"44.20000076","datesource":"1370-10-21","id_personn":"2853","Weight":"1.0","nomvedette":"Bignerius de Manhaudo","souverain":"Royaume de France","depart_lon":"0.63332999"},"color":"rgb(153,153,153)","size":1.0},{"label":"TOLEDO","source":"34489","target":"34495","id":"463","attributes":{"depart_lat":"42.88000107","datesource":"1351-01-04","id_personn":"1716","Weight":"2.0","nomvedette":"Gundisalvus de Aguilar","souverain":"Castille","depart_lon":"-8.53999996"},"color":"rgb(153,153,153)","size":2.0},{"label":"VISEU","source":"34140","target":"34141","id":"1005","attributes":{"depart_lat":"37.18000031","datesource":"1365-07-02","id_personn":"5549","Weight":"1.0","nomvedette":"Gundisalvus","souverain":"Royaume du Portugal","depart_lon":"-8.42000008"},"color":"rgb(153,153,153)","size":1.0},{"label":"SARLAT-LA-CANEDA","source":"34558","target":"34566","id":"887","attributes":{"depart_lat":"45.18333054","datesource":"1341-10-01","id_personn":"4392","Weight":"1.0","nomvedette":"Itherius de Sandreux","souverain":"Royaume de France","depart_lon":"0.71666998"},"color":"rgb(153,153,153)","size":1.0},{"label":"BEZIERS","source":"34575","target":"34520","id":"268","attributes":{"depart_lat":"47.3833313","datesource":"1349-12-11","id_personn":"895","Weight":"1.0","nomvedette":"Hugo de la Jugie","souverain":"Royaume de France","depart_lon":"0.68333"},"color":"rgb(153,153,153)","size":1.0},{"label":"BEAUVAIS","source":"34557","target":"34518","id":"255","attributes":{"depart_lat":"48.8666687","datesource":"1313-01-08","id_personn":"820","Weight":"2.0","nomvedette":"Joannes de Marigny","souverain":"Royaume de France","depart_lon":"2.33332992"},"color":"rgb(153,153,153)","size":2.0},{"label":"ATRI","source":"34812","target":"34647","id":"840","attributes":{"depart_lat":"40.84999847","datesource":"1321-06-28","id_personn":"3902","Weight":"1.0","nomvedette":"Raimundus","souverain":"Royaume de Naples","depart_lon":"14.27000046"},"color":"rgb(153,153,153)","size":1.0},{"label":"SORRENTO","source":"34481","target":"34754","id":"760","attributes":{"depart_lat":"40.74208832","datesource":"1332-10-20","id_personn":"3425","Weight":"1.0","nomvedette":"Petrus","souverain":"Royaume de Naples","depart_lon":"15.48229027"},"color":"rgb(153,153,153)","size":1.0},{"label":"KOTOR","source":"34297","target":"34243","id":"403","attributes":{"depart_lat":"41.92972183","datesource":"1334-08-17","id_personn":"1429","Weight":"1.0","nomvedette":"Thomas de Ripatransonis","souverain":"Principauté de Zeta","depart_lon":"19.20805931"},"color":"rgb(153,153,153)","size":1.0},{"label":"TARBES","source":"34574","target":"34571","id":"42","attributes":{"depart_lat":"43.59999847","datesource":"1316-10-26","id_personn":"146","Weight":"1.0","nomvedette":"Guilelmus de Lantal","souverain":"Royaume de France","depart_lon":"1.43333006"},"color":"rgb(153,153,153)","size":1.0},{"label":"COSENZA","source":"34650","target":"34705","id":"247","attributes":{"depart_lat":"41.11999893","datesource":"1377-01-13","id_personn":"790","Weight":"1.0","nomvedette":"Nicolaus Brancaccio","souverain":"Royaume de Naples","depart_lon":"16.87000084"},"color":"rgb(153,153,153)","size":1.0},{"label":"SAINTES","source":"34164","target":"34564","id":"960","attributes":{"depart_lat":"44.43395996","datesource":"1318-01-18","id_personn":"5231","Weight":"2.0","nomvedette":"Theobaldus de Chastillon","souverain":"Royaume de France","depart_lon":"-0.20321999"},"color":"rgb(153,153,153)","size":2.0},{"label":"ALESSANDRIA","source":"34729","target":"34638","id":"75","attributes":{"depart_lat":"43.72000122","datesource":"1323-06-06","id_personn":"221","Weight":"1.0","nomvedette":"Oddo Sala","souverain":"Duché de Milan","depart_lon":"10.39999962"},"color":"rgb(153,153,153)","size":1.0},{"label":"SAN MARCO IN LAMIS","source":"34918","target":"34743","id":"714","attributes":{"depart_lat":"39.35435867","datesource":"1374-10-30","id_personn":"3145","Weight":"1.0","nomvedette":"Nicolaus","souverain":"Royaume de Naples","depart_lon":"16.91814041"},"color":"rgb(153,153,153)","size":1.0},{"label":"VAISON","source":"34523","target":"29712","id":"977","attributes":{"depart_lat":"44.43333054","datesource":"1371-02-07","id_personn":"5368","Weight":"1.0","nomvedette":"Eblo de Miers","souverain":"Royaume de France","depart_lon":"1.43333006"},"color":"rgb(153,153,153)","size":1.0},{"label":"LARINO","source":"34647","target":"34355","id":"627","attributes":{"depart_lat":"42.59000015","datesource":"1370-06-21","id_personn":"2791","Weight":"1.0","nomvedette":"Sabinus","souverain":"Royaume de Naples","depart_lon":"13.96000004"},"color":"rgb(153,153,153)","size":1.0},{"label":"OTTANA","source":"34885","target":"34455","id":"814","attributes":{"depart_lat":"40.69377899","datesource":"1344-06-14","id_personn":"3740","Weight":"1.0","nomvedette":"Franciscus","souverain":"Sardaigne","depart_lon":"8.17422962"},"color":"rgb(153,153,153)","size":1.0},{"label":"SAINT-DAVIDS","source":"34591","target":"34682","id":"736","attributes":{"depart_lat":"53.23332977","datesource":"1347-05-23","id_personn":"3254","Weight":"1.0","nomvedette":"Joannes de Thoresby","souverain":"Royaume d\u0027Angleterre","depart_lon":"-0.53333002"},"color":"rgb(153,153,153)","size":1.0},{"label":"GIRONA","source":"34445","target":"34444","id":"573","attributes":{"depart_lat":"42.13999939","datesource":"1328-12-05","id_personn":"2441","Weight":"1.0","nomvedette":"Gaston de Moncada","souverain":"Couronne d\u0027Aragon","depart_lon":"-0.41"},"color":"rgb(153,153,153)","size":1.0},{"label":"ALET-LES-BAINS","source":"34674","target":"34306","id":"542","attributes":{"depart_lat":"43.0865097","datesource":"1363-07-05","id_personn":"2152","Weight":"1.0","nomvedette":"Arnaldus de Villar","souverain":"Royaume de France","depart_lon":"1.87391996"},"color":"rgb(153,153,153)","size":1.0},{"label":"SARZINA","source":"34774","target":"34453","id":"891","attributes":{"depart_lat":"44.22000122","datesource":"1361-09-03","id_personn":"4409","Weight":"1.0","nomvedette":"Joannes de Nomayo","souverain":"Etats Pontificaux","depart_lon":"12.02999973"},"color":"rgb(153,153,153)","size":1.0},{"label":"PAMIERS","source":"34548","target":"34556","id":"119","attributes":{"depart_lat":"43.18333054","datesource":"1317-03-19","id_personn":"345","Weight":"1.0","nomvedette":"Jacobus Fournier, fut. Ben. XII","souverain":"Royaume de France","depart_lon":"3.01"},"color":"rgb(153,153,153)","size":1.0},{"label":"MAZARA DEL VALLO","source":"34688","target":"34800","id":"722","attributes":{"depart_lat":"37.5","datesource":"1357-04-24","id_personn":"3214","Weight":"1.0","nomvedette":"Gregorius","souverain":"Royaume de Sicile","depart_lon":"15.07999992"},"color":"rgb(153,153,153)","size":1.0},{"label":"METZ","source":"34415","target":"34545","id":"738","attributes":{"depart_lat":"48.58000183","datesource":"1319-05-04","id_personn":"3271","Weight":"1.0","nomvedette":"Henricus Delfini Viennen.","souverain":"Saint Empire Romain Germanique","depart_lon":"13.43999958"},"color":"rgb(153,153,153)","size":1.0},{"label":"IMOLA","source":"34696","target":"34784","id":"618","attributes":{"depart_lat":"43.02000046","datesource":"1317-01-12","id_personn":"2690","Weight":"1.0","nomvedette":"Raimboldus Romandiola","souverain":"Etats Pontificaux","depart_lon":"11.93999958"},"color":"rgb(153,153,153)","size":1.0},{"label":"BITONTO","source":"34647","target":"34658","id":"285","attributes":{"depart_lat":"42.59000015","datesource":"1373-05-18","id_personn":"969","Weight":"1.0","nomvedette":"Blasius Dominici","souverain":"Royaume de Naples","depart_lon":"13.96000004"},"color":"rgb(153,153,153)","size":1.0},{"label":"OTRANTO","source":"34381","target":"34343","id":"491","attributes":{"depart_lat":"39.08063126","datesource":"1363-12-20","id_personn":"1800","Weight":"1.0","nomvedette":"Jacobus de Itro","souverain":"Royaume de Naples","depart_lon":"16.24588013"},"color":"rgb(153,153,153)","size":1.0},{"label":"OURENSE","source":"34488","target":"34815","id":"179","attributes":{"depart_lat":"40.97000122","datesource":"1367-01-15","id_personn":"663","Weight":"1.0","nomvedette":"Joannes Sierra","souverain":"Castille","depart_lon":"-5.67000008"},"color":"rgb(153,153,153)","size":1.0},{"label":"JAEN","source":"34432","target":"34446","id":"579","attributes":{"depart_lat":"38.88000107","datesource":"1335-01-19","id_personn":"2454","Weight":"1.0","nomvedette":"Joannes de Morales","souverain":"Castille","depart_lon":"-6.96999979"},"color":"rgb(153,153,153)","size":1.0},{"label":"CASTRO [It. med.]","source":"34180","target":"34239","id":"396","attributes":{"depart_lat":"42.54441071","datesource":"1322-01-08","id_personn":"1389","Weight":"1.0","nomvedette":"Alamannus","souverain":"Etats Pontificaux","depart_lon":"12.4019804"},"color":"rgb(153,153,153)","size":1.0},{"label":"BREMEN","source":"34406","target":"34398","id":"295","attributes":{"depart_lat":"52.13000107","datesource":"1360-07-17","id_personn":"1007","Weight":"1.0","nomvedette":"Albertus de Brunswich","souverain":"Saint Empire Romain Germanique","depart_lon":"11.61999989"},"color":"rgb(153,153,153)","size":1.0},{"label":"BADAJOZ","source":"34441","target":"34432","id":"580","attributes":{"depart_lat":"37.88000107","datesource":"1329-10-23","id_personn":"2454","Weight":"2.0","nomvedette":"Joannes de Morales","souverain":"Castille","depart_lon":"-4.76999998"},"color":"rgb(153,153,153)","size":2.0},{"label":"QUIMPER","source":"34565","target":"34560","id":"498","attributes":{"depart_lat":"48.65000153","datesource":"1333-01-22","id_personn":"1852","Weight":"1.0","nomvedette":"Alanus Gontier","souverain":"Royaume de France","depart_lon":"-2.01666999"},"color":"rgb(153,153,153)","size":1.0},{"label":"AUCH","source":"34525","target":"34511","id":"208","attributes":{"depart_lat":"43.21667099","datesource":"1357-01-18","id_personn":"691","Weight":"2.0","nomvedette":"Amaldus Alberti","souverain":"Royaume de France","depart_lon":"2.3499999"},"color":"rgb(153,153,153)","size":2.0},{"label":"BEZIERS","source":"34500","target":"34520","id":"44","attributes":{"depart_lat":"43.31666946","datesource":"1371-07-18","id_personn":"149","Weight":"1.0","nomvedette":"Sicardus de Lautrec","souverain":"Royaume de France","depart_lon":"3.46667004"},"color":"rgb(153,153,153)","size":1.0},{"label":"JAEN","source":"34447","target":"34446","id":"581","attributes":{"depart_lat":"42.59000015","datesource":"1359-10-23","id_personn":"2456","Weight":"1.0","nomvedette":"Alfonsus Pecha","souverain":"Castille","depart_lon":"-5.57000017"},"color":"rgb(153,153,153)","size":1.0},{"label":"MONDOÑEDO","source":"34437","target":"34676","id":"747","attributes":{"depart_lat":"42.34000015","datesource":"1327-02-14","id_personn":"3327","Weight":"1.0","nomvedette":"Joannes","souverain":"Castille","depart_lon":"-2.79999995"},"color":"rgb(153,153,153)","size":1.0},{"label":"LE PUY","source":"34539","target":"34186","id":"106","attributes":{"depart_lat":"43.06666946","datesource":"1318-02-14","id_personn":"318","Weight":"1.0","nomvedette":"Durandus de Pourcain","souverain":"Royaume de France","depart_lon":"2.23333001"},"color":"rgb(153,153,153)","size":1.0},{"label":"CASTELLAMMAREDISTABIA","source":"34179","target":"34686","id":"912","attributes":{"depart_lat":"40.64780045","datesource":"1331-09-24","id_personn":"4699","Weight":"1.0","nomvedette":"Matthaeus de Alagno","souverain":"Royaume de Naples","depart_lon":"14.60276031"},"color":"rgb(153,153,153)","size":1.0},{"label":"CASTELLANETA","source":"34887","target":"34687","id":"389","attributes":{"depart_lat":"38.78055954","datesource":"1344-02-04","id_personn":"1366","Weight":"1.0","nomvedette":"Petrus de Baia","souverain":"Royaume de Naples","depart_lon":"16.51166916"},"color":"rgb(153,153,153)","size":1.0},{"label":"STRASBOURG","source":"34886","target":"34570","id":"138","attributes":{"depart_lat":"49.31681061","datesource":"1328-11-28","id_personn":"468","Weight":"2.0","nomvedette":"Bertholdus de Bucheck","souverain":"Saint Empire Romain Germanique","depart_lon":"8.43056011"},"color":"rgb(153,153,153)","size":2.0},{"label":"ROUEN","source":"34568","target":"34563","id":"164","attributes":{"depart_lat":"48.20000076","datesource":"1330-12-14","id_personn":"611","Weight":"1.0","nomvedette":"Petrus Roger de Maumont","souverain":"Royaume de France","depart_lon":"3.28332996"},"color":"rgb(153,153,153)","size":1.0},{"label":"CASSANO ALLOIONIO","source":"34652","target":"34685","id":"385","attributes":{"depart_lat":"41.13000107","datesource":"1329-03-18","id_personn":"1337","Weight":"1.0","nomvedette":"Joannes de Mafino","souverain":"Royaume de Naples","depart_lon":"14.77000046"},"color":"rgb(153,153,153)","size":1.0},{"label":"BRESCIA","source":"34653","target":"34661","id":"304","attributes":{"depart_lat":"45.70000076","datesource":"1349-10-23","id_personn":"1023","Weight":"1.0","nomvedette":"Bernardus Trigardi","souverain":"Duché de Milan","depart_lon":"9.67000008"},"color":"rgb(153,153,153)","size":1.0},{"label":"LANGRES","source":"34513","target":"34535","id":"664","attributes":{"depart_lat":"47.79999924","datesource":"1345-05-05","id_personn":"2946","Weight":"1.0","nomvedette":"Guilelmus de Poitiers","souverain":"Royaume de France","depart_lon":"3.56666994"},"color":"rgb(153,153,153)","size":1.0},{"label":"LISBOA","source":"34136","target":"34138","id":"959","attributes":{"depart_lat":"38.56999969","datesource":"1326-02-27","id_personn":"5228","Weight":"1.0","nomvedette":"Joannes Alfonsi Brito","souverain":"Royaume du Portugal","depart_lon":"-7.90999985"},"color":"rgb(153,153,153)","size":1.0},{"label":"TORCELLO","source":"34482","target":"34904","id":"938","attributes":{"depart_lat":"36.83000183","datesource":"1373-12-14","id_personn":"5041","Weight":"1.0","nomvedette":"Philippus","souverain":"République de Venise","depart_lon":"21.70999908"},"color":"rgb(153,153,153)","size":1.0},{"label":"TORTONA","source":"34803","target":"34767","id":"921","attributes":{"depart_lat":"45.47999954","datesource":"1348-07-02","id_personn":"4878","Weight":"1.0","nomvedette":"Jacobus de Vicecomitibus","souverain":"Duché de Milan","depart_lon":"9.18999958"},"color":"rgb(153,153,153)","size":1.0},{"label":"CASALNUOVA MONTEROTARO","source":"34659","target":"34292","id":"520","attributes":{"depart_lat":"41.48332977","datesource":"1346-03-08","id_personn":"2030","Weight":"1.0","nomvedette":"Marinus","souverain":"Royaume de Naples","depart_lon":"14.48332977"},"color":"rgb(153,153,153)","size":1.0},{"label":"AGDE","source":"34557","target":"34500","id":"43","attributes":{"depart_lat":"48.8666687","datesource":"1342-06-26","id_personn":"147","Weight":"1.0","nomvedette":"Petrus Berail","souverain":"Royaume de France","depart_lon":"2.33332992"},"color":"rgb(153,153,153)","size":1.0},{"label":"DIGNE-LES-BAINS","source":"34112","target":"34288","id":"516","attributes":{"depart_lat":"43.91381073","datesource":"1362-05-20","id_personn":"2005","Weight":"1.0","nomvedette":"Bertrandus de Seguret 2","souverain":"Comté de Provence","depart_lon":"6.40416002"},"color":"rgb(153,153,153)","size":1.0},{"label":"SULCIS","source":"34664","target":"34892","id":"919","attributes":{"depart_lat":"39.22000122","datesource":"1349-05-18","id_personn":"4791","Weight":"1.0","nomvedette":"Raimundus Gileti","souverain":"Sardaigne","depart_lon":"9.10000038"},"color":"rgb(153,153,153)","size":1.0},{"label":"CALAHORRA","source":"34435","target":"34437","id":"332","attributes":{"depart_lat":"42.34999847","datesource":"1373-11-16","id_personn":"1144","Weight":"1.0","nomvedette":"Gundisalvus de Mena Vargas","souverain":"Castille","depart_lon":"-3.69000006"},"color":"rgb(153,153,153)","size":1.0},{"label":"TRANI","source":"34790","target":"34768","id":"638","attributes":{"depart_lat":"41.04999924","datesource":"1344-03-26","id_personn":"2831","Weight":"1.0","nomvedette":"Philippus de Neapoli","souverain":"Royaume de Naples","depart_lon":"15.77999973"},"color":"rgb(153,153,153)","size":1.0},{"label":"LAVELLO","source":"34937","target":"34790","id":"641","attributes":{"depart_lat":"41.22","datesource":"1371-01-05","id_personn":"2835","Weight":"1.0","nomvedette":"Jacobus","souverain":"Royaume de Naples","depart_lon":"14.53"},"color":"rgb(153,153,153)","size":1.0},{"label":"SULMONA","source":"34158","target":"34756","id":"14","attributes":{"depart_lat":"40.76539993","datesource":"1319-05-25","id_personn":"50","Weight":"1.0","nomvedette":"Andreas Capograsso","souverain":"Royaume de Naples","depart_lon":"15.05706978"},"color":"rgb(153,153,153)","size":1.0},{"label":"BOURGES","source":"34543","target":"34522","id":"102","attributes":{"depart_lat":"48.95000076","datesource":"1321-02-27","id_personn":"317","Weight":"1.0","nomvedette":"Guilelmus de Brosse","souverain":"Royaume de France","depart_lon":"2.86666989"},"color":"rgb(153,153,153)","size":1.0},{"label":"KONSTANZ","source":"34390","target":"34404","id":"489","attributes":{"depart_lat":"46.84999847","datesource":"1322-10-01","id_personn":"1776","Weight":"1.0","nomvedette":"Rodulfus de Montfort-Feldkirch","souverain":"Saint Empire Romain Germanique","depart_lon":"9.5"},"color":"rgb(153,153,153)","size":1.0},{"label":"MALLORCA","source":"34309","target":"32096","id":"707","attributes":{"depart_lat":"42.59968948","datesource":"1332-07-27","id_personn":"3112","Weight":"2.0","nomvedette":"Berengarius Batle","souverain":"Couronne d\u0027Aragon","depart_lon":"2.97167993"},"color":"rgb(153,153,153)","size":2.0},{"label":"ORANGE","source":"34514","target":"34554","id":"173","attributes":{"depart_lat":"43.95000076","datesource":"1324-03-28","id_personn":"640","Weight":"1.0","nomvedette":"Hugo","souverain":"Avignon","depart_lon":"4.81666994"},"color":"rgb(153,153,153)","size":1.0},{"label":"PIACENZA","source":"34661","target":"34728","id":"301","attributes":{"depart_lat":"45.54999924","datesource":"1317-00-00","id_personn":"1018","Weight":"1.0","nomvedette":"Fredericus Maggi","souverain":"Duché de Milan","depart_lon":"10.22000027"},"color":"rgb(153,153,153)","size":1.0},{"label":"AIRE-SUR-L\u0027ADOUR","source":"27132","target":"34165","id":"28","attributes":{"depart_lat":"43.26478958","datesource":"1349-06-17","id_personn":"102","Weight":"1.0","nomvedette":"Dalphinus Dauphin","souverain":"Royaume de France","depart_lon":"1.19971001"},"color":"rgb(153,153,153)","size":1.0},{"label":"MONTE CASSINO","source":"34319","target":"34235","id":"384","attributes":{"depart_lat":"41.32041168","datesource":"1355-03-18","id_personn":"1330","Weight":"1.0","nomvedette":"Angelus Acciajoli","souverain":"Royaume de Naples","depart_lon":"15.43383026"},"color":"rgb(153,153,153)","size":1.0},{"label":"ELY","source":"34592","target":"34308","id":"356","attributes":{"depart_lat":"51.5","datesource":"1362-01-10","id_personn":"1242","Weight":"1.0","nomvedette":"Simon Langham","souverain":"Royaume d\u0027Angleterre","depart_lon":"-0.11667"},"color":"rgb(153,153,153)","size":1.0},{"label":"TURSI - ANGLONA","source":"34160","target":"34185","id":"99","attributes":{"depart_lat":"40.77637863","datesource":"1332-12-16","id_personn":"311","Weight":"1.0","nomvedette":"Joannes de Tricarico","souverain":"Royaume de Naples","depart_lon":"15.94223022"},"color":"rgb(153,153,153)","size":1.0},{"label":"CORDOBA","source":"34451","target":"34441","id":"494","attributes":{"depart_lat":"42.02999878","datesource":"1350-05-21","id_personn":"1822","Weight":"1.0","nomvedette":"Martinus Ximenes Argote","souverain":"Castille","depart_lon":"-4.53999996"},"color":"rgb(153,153,153)","size":1.0},{"label":"SAINT-BERTRAND-DE-COMMINGES","source":"34556","target":"34272","id":"122","attributes":{"depart_lat":"43.1166687","datesource":"1371-06-06","id_personn":"349","Weight":"1.0","nomvedette":"Guilelmus d\u0027Espagne","souverain":"Royaume de France","depart_lon":"1.60000002"},"color":"rgb(153,153,153)","size":1.0},{"label":"PRAHA","source":"34393","target":"34394","id":"802","attributes":{"depart_lat":"49.61000061","datesource":"1364-08-23","id_personn":"3680","Weight":"1.0","nomvedette":"Joannes Ocko de Wlasim","souverain":"Couronne de Bohême","depart_lon":"17.25"},"color":"rgb(153,153,153)","size":1.0},{"label":"AUCH","source":"34563","target":"34511","id":"260","attributes":{"depart_lat":"49.43333054","datesource":"1375-08-27","id_personn":"822","Weight":"1.0","nomvedette":"Philippus d Alenconio","souverain":"Royaume de France","depart_lon":"1.08333004"},"color":"rgb(153,153,153)","size":1.0},{"label":"LECTOURE","source":"34559","target":"34163","id":"65","attributes":{"depart_lat":"46.58332825","datesource":"1308-09-19","id_personn":"195","Weight":"1.0","nomvedette":"Geraldus","souverain":"Royaume de France","depart_lon":"0.33333001"},"color":"rgb(153,153,153)","size":1.0},{"label":"SIGUENZA","source":"34495","target":"31971","id":"453","attributes":{"depart_lat":"39.86000061","datesource":"1348-08-14","id_personn":"1672","Weight":"1.0","nomvedette":"Petrus Gomez Alvarez de Albornoz","souverain":"Castille","depart_lon":"-4.30000019"},"color":"rgb(153,153,153)","size":1.0},{"label":"SAINTES","source":"34555","target":"34564","id":"1016","attributes":{"depart_lat":"47.91667175","datesource":"1351-01-08","id_personn":"5609","Weight":"1.0","nomvedette":"Gualhardus du Puy","souverain":"Royaume de France","depart_lon":"1.89999998"},"color":"rgb(153,153,153)","size":1.0},{"label":"BRESCIA","source":"34767","target":"34661","id":"303","attributes":{"depart_lat":"44.90999985","datesource":"1325-05-24","id_personn":"1020","Weight":"1.0","nomvedette":"Tiberius Torriani","souverain":"Duché de Milan","depart_lon":"8.85000038"},"color":"rgb(153,153,153)","size":1.0},{"label":"SEVILLA","source":"34430","target":"34492","id":"158","attributes":{"depart_lat":"42.40000153","datesource":"1349-01-28","id_personn":"593","Weight":"1.0","nomvedette":"Nunius","souverain":"Castille","depart_lon":"-5.98000002"},"color":"rgb(153,153,153)","size":1.0},{"label":"UZES","source":"34520","target":"26339","id":"961","attributes":{"depart_lat":"43.34999847","datesource":"1371-06-16","id_personn":"5286","Weight":"1.0","nomvedette":"Bernardus de S. Etienne","souverain":"Royaume de France","depart_lon":"3.25"},"color":"rgb(153,153,153)","size":1.0},{"label":"ROCHESTER","source":"34592","target":"34107","id":"1017","attributes":{"depart_lat":"51.5","datesource":"1364-03-06","id_personn":"5981","Weight":"1.0","nomvedette":"Thomas Trilleg","souverain":"Royaume d\u0027Angleterre","depart_lon":"-0.11667"},"color":"rgb(153,153,153)","size":1.0},{"label":"MELFI","source":"34649","target":"34801","id":"731","attributes":{"depart_lat":"40.97999954","datesource":"1331-12-21","id_personn":"3241","Weight":"1.0","nomvedette":"Jacobus","souverain":"Royaume de Naples","depart_lon":"14.18999958"},"color":"rgb(153,153,153)","size":1.0},{"label":"AIX-EN-PROVENCE","source":"34288","target":"34187","id":"126","attributes":{"depart_lat":"44.0945816","datesource":"1361-08-02","id_personn":"376","Weight":"1.0","nomvedette":"Joannes Peissoni","souverain":"Comté de Provence","depart_lon":"6.23398018"},"color":"rgb(153,153,153)","size":1.0},{"label":"LISIEUX","source":"34557","target":"34540","id":"655","attributes":{"depart_lat":"48.8666687","datesource":"1368-10-11","id_personn":"2908","Weight":"1.0","nomvedette":"Alfonsus Chevrier","souverain":"Royaume de France","depart_lon":"2.33332992"},"color":"rgb(153,153,153)","size":1.0},{"label":"BASEL","source":"34545","target":"34389","id":"739","attributes":{"depart_lat":"49.1333313","datesource":"1365-08-13","id_personn":"3274","Weight":"1.0","nomvedette":"Joannes de Vienne","souverain":"Saint Empire Romain Germanique","depart_lon":"6.16666985"},"color":"rgb(153,153,153)","size":1.0},{"label":"SAINT-MALO","source":"34547","target":"34565","id":"499","attributes":{"depart_lat":"47.21667099","datesource":"1317-03-02","id_personn":"1852","Weight":"1.0","nomvedette":"Alanus Gontier","souverain":"Royaume de France","depart_lon":"-1.54999995"},"color":"rgb(153,153,153)","size":1.0},{"label":"TRIVENTO","source":"34184","target":"34913","id":"96","attributes":{"depart_lat":"40.90956116","datesource":"1348-05-30","id_personn":"304","Weight":"1.0","nomvedette":"Petrus de Aquila","souverain":"Royaume de Naples","depart_lon":"15.20656013"},"color":"rgb(153,153,153)","size":1.0},{"label":"LLEIDA","source":"34445","target":"34344","id":"615","attributes":{"depart_lat":"42.13999939","datesource":"1324-11-14","id_personn":"2676","Weight":"1.0","nomvedette":"Raimundus","souverain":"Couronne d\u0027Aragon","depart_lon":"-0.41"},"color":"rgb(153,153,153)","size":1.0},{"label":"MALLORCA","source":"34434","target":"32096","id":"708","attributes":{"depart_lat":"41.40000153","datesource":"1349-11-13","id_personn":"3113","Weight":"1.0","nomvedette":"Antonius de Colell","souverain":"Couronne d\u0027Aragon","depart_lon":"2.17000008"},"color":"rgb(153,153,153)","size":1.0},{"label":"SARLAT-LA-CANEDA","source":"34500","target":"34566","id":"885","attributes":{"depart_lat":"43.31666946","datesource":"1324-11-28","id_personn":"4388","Weight":"1.0","nomvedette":"Bertrandus Berengar","souverain":"Royaume de France","depart_lon":"3.46667004"},"color":"rgb(153,153,153)","size":1.0},